[
    {
        "place_id": "ChIJqc98NYKa1ZERZhIN_7SKvVo",
        "nombre": "Libri Mundi",
        "direccion": "CC Quicentro, Planta baja, Av. Naciones Unidas &, Av. de los Shyris 170102, Quito 170135, Ecuador",
        "provincia": "Pichincha",
        "lat": -0.176184,
        "lng": -78.48054929999999,
        "rating": 4.6,
        "website": "https://www.librimundi.com/",
        "keyword_found": "librería"
    },
    {
        "place_id": "ChIJbfCG-dub1ZERFiL_0urDSpA",
        "nombre": "Librería Española 6 de Diciembre",
        "direccion": "Quito 170102, Ecuador",
        "provincia": "Pichincha",
        "lat": -0.166448,
        "lng": -78.4758512,
        "rating": 4.5,
        "website": "http://www.libreriaespanola.com/",
        "keyword_found": "librería"
    },
    {
        "place_id": "ChIJI_33wcOY1ZERdotAULzmfh0",
        "nombre": "Librería y Papelería Punto Papel",
        "direccion": "Quito 170131, Ecuador",
        "provincia": "Pichincha",
        "lat": -0.2697297,
        "lng": -78.54751999999999,
        "rating": 4.5,
        "website": null,
        "keyword_found": "librería"
    },
    {
        "place_id": "ChIJGR1dxmSa1ZERKyhoiPK_KaM",
        "nombre": "Librería Mr.Books Mall El Jardín",
        "direccion": "Av.Amazonas y Av. República Centro comercial Mall El Jardin. Piso 3. Local 321, Quito 170135, Ecuador",
        "provincia": "Pichincha",
        "lat": -0.189325,
        "lng": -78.4872236,
        "rating": 4.7,
        "website": "https://www.mrbooks.com/",
        "keyword_found": "librería"
    },
    {
        "place_id": "ChIJgbZczsm91ZERSWHzdgrKLhI",
        "nombre": "Librimundi San Luis Shopping",
        "direccion": "Calle Isla Santa Clara y Av. General Rumiñahui Centro Comercial San Luis Shopping. Plata 2. Local 229 San Rafael, Quito 170152, Ecuador",
        "provincia": "Pichincha",
        "lat": -0.3077337,
        "lng": -78.4498533,
        "rating": 4.4,
        "website": null,
        "keyword_found": "librería"
    },
    {
        "place_id": "ChIJv8wvYQCb1ZERxsv5egmHK5o",
        "nombre": "El libro en la calle - Librería",
        "direccion": "Av. Gral. Ignacio de Veintimilla &, Quito 170143, Ecuador",
        "provincia": "Pichincha",
        "lat": -0.2049361,
        "lng": -78.49252829999999,
        "rating": 4.8,
        "website": null,
        "keyword_found": "librería"
    },
    {
        "place_id": "ChIJA95610Wj1ZERGj0G5cYPuCo",
        "nombre": "Librería y Papelería Versalles",
        "direccion": "Av. Pedro Vicente Maldonado 25, Quito 170146, Ecuador",
        "provincia": "Pichincha",
        "lat": -0.3154264,
        "lng": -78.54840480000001,
        "rating": 4.5,
        "website": null,
        "keyword_found": "librería"
    },
    {
        "place_id": "ChIJx69-5pqF1ZERN5iptLe2AX8",
        "nombre": "Librería Mr.Books Condado Shopping",
        "direccion": "Av. Mariscal Sucre y Avenida John F. Kennedy Centro Comercial Condado Shopping. Nivel 3- Isla nivel 1, Quito 170134, Ecuador",
        "provincia": "Pichincha",
        "lat": -0.1029267,
        "lng": -78.48961249999999,
        "rating": 4.5,
        "website": null,
        "keyword_found": "librería"
    },
    {
        "place_id": "ChIJ9a_Uw1qb1ZERJCTUKn0zTXo",
        "nombre": "Librería Española CCI",
        "direccion": "RGF7+2WW, Quito 170135, Ecuador",
        "provincia": "Pichincha",
        "lat": -0.1773883,
        "lng": -78.4851674,
        "rating": 4.6,
        "website": "http://www.libreriaespanola.com/",
        "keyword_found": "librería"
    },
    {
        "place_id": "ChIJZ1G1ZCYJKo4Rb1jhDA-CQS8",
        "nombre": "Tu libreria",
        "direccion": "Juan motalvo, Bolivar, Cayambe 171002, Ecuador",
        "provincia": "Pichincha",
        "lat": 0.0405656,
        "lng": -78.1416191,
        "rating": 5,
        "website": null,
        "keyword_found": "librería"
    },
    {
        "place_id": "ChIJneTFMaeb1ZERMM-zLuWGYTE",
        "nombre": "Librería Española • El Bosque",
        "direccion": "Unnamed Road, RGQ3+36M, Quito 170132, Ecuador",
        "provincia": "Pichincha",
        "lat": -0.1622996,
        "lng": -78.49694459999999,
        "rating": 3.1,
        "website": "http://www.libreriaespanola.com/",
        "keyword_found": "librería"
    },
    {
        "place_id": "ChIJQenAnwgJKo4RHEko-v7fxz4",
        "nombre": "Librería \"La Cosecha\"",
        "direccion": "Rocafuerte &, Cayambe, Ecuador",
        "provincia": "Pichincha",
        "lat": 0.0376138,
        "lng": -78.1442426,
        "rating": 4.5,
        "website": "https://www.instagram.com/lacosechalibreria_cy/?hl=es-la",
        "keyword_found": "librería"
    },
    {
        "place_id": "ChIJS_XZPpuQ1ZERwtxOnhte7p8",
        "nombre": "Librería Mr.Books Scala Shopping",
        "direccion": "Av. Interoceánica Km 12 ½ y Pasaje El Valle Centro Comercial Scala Shopping. Planta Baja. Local: 168, Quito 170902, Ecuador",
        "provincia": "Pichincha",
        "lat": -0.2072123,
        "lng": -78.4263103,
        "rating": 4.5,
        "website": "http://www.mrbooks.com/",
        "keyword_found": "librería"
    },
    {
        "place_id": "ChIJCy0I2OaQ1ZERO8CcNQ0VevI",
        "nombre": "Librería The Owl",
        "direccion": "Centro Comercial Paseo San Francisco, Piso 2, Local 180 Avenida María Angélica Idrobo S/N, Quito 170901, Ecuador",
        "provincia": "Pichincha",
        "lat": -0.1992763,
        "lng": -78.4361849,
        "rating": 3.9,
        "website": "http://www.theowl.ec/",
        "keyword_found": "librería"
    },
    {
        "place_id": "ChIJ-wgds_mR1ZERB2JN6tNMido",
        "nombre": "Librimundi Villa Cumbayá",
        "direccion": "Av. Interocéanica S/N y Urb. Santa Lucía Centro Comercial Villa Cumbayá. Planta Baja, Quito 170157, Ecuador",
        "provincia": "Pichincha",
        "lat": -0.1982754,
        "lng": -78.4380595,
        "rating": 4.7,
        "website": null,
        "keyword_found": "librería"
    },
    {
        "place_id": "ChIJWdlftMOj1ZERQAKhLp7x5XM",
        "nombre": "Librería Española Recreo",
        "direccion": "Av. Pedro Vicente Maldonado, Quito 170146, Ecuador",
        "provincia": "Pichincha",
        "lat": -0.3061561,
        "lng": -78.5432725,
        "rating": 3.9,
        "website": null,
        "keyword_found": "librería"
    },
    {
        "place_id": "ChIJtWh0DnOF1ZERNv3qyEpEDeU",
        "nombre": "Librería La Cultura",
        "direccion": "VGM3+XMQ, Libertador, Quito 170103, Ecuador",
        "provincia": "Pichincha",
        "lat": -0.1150263,
        "lng": -78.4957774,
        "rating": 4.3,
        "website": null,
        "keyword_found": "librería"
    },
    {
        "place_id": "ChIJLx-mVQC91ZEROXYzb2SYMsI",
        "nombre": "Librería EL BUHO LECTOR",
        "direccion": "MHG2+R27, Av. Gral. Enríquez, Sangolquí 171103, Ecuador",
        "provincia": "Pichincha",
        "lat": -0.3229517,
        "lng": -78.44995,
        "rating": 5,
        "website": null,
        "keyword_found": "librería"
    },
    {
        "place_id": "ChIJJ_VaCuub1ZERMPbHiLwsJbg",
        "nombre": "BS BOOKS LIBRERIA",
        "direccion": "Austria 34-105, Quito 170505, Ecuador",
        "provincia": "Pichincha",
        "lat": -0.18481,
        "lng": -78.4799864,
        "rating": 5,
        "website": null,
        "keyword_found": "librería"
    },
    {
        "place_id": "ChIJFweQVZCa1ZERqDdV7GYnHKA",
        "nombre": "Elyon Books | Librería Cristiana ONLINE",
        "direccion": "Punto de Recogida:, José Mora N61-38, Quito 170301, Ecuador",
        "provincia": "Pichincha",
        "lat": -0.1233024,
        "lng": -78.4976563,
        "rating": 4.6,
        "website": "https://elyonbooks.com/",
        "keyword_found": "librería"
    },
    {
        "place_id": "ChIJuRKW6mSa1ZERHcqyGuP_jp0",
        "nombre": "Librería Mundo Lector",
        "direccion": "Hungria 520, Quito 170515, Ecuador",
        "provincia": "Pichincha",
        "lat": -0.189542,
        "lng": -78.4886954,
        "rating": 4.7,
        "website": null,
        "keyword_found": "librería"
    },
    {
        "place_id": "ChIJ0-FZpzi91ZERqz0o6tXzHD8",
        "nombre": "Librería CRISTO REY 1",
        "direccion": "Chone Km 70, Quito, Ecuador",
        "provincia": "Pichincha",
        "lat": -0.3109445,
        "lng": -78.4517668,
        "rating": null,
        "website": null,
        "keyword_found": "librería"
    },
    {
        "place_id": "ChIJR5Cf3p6a1ZER5w73lSmfCx4",
        "nombre": "Cuenta.me",
        "direccion": "Shyris N41-151, Quito 170513, Ecuador",
        "provincia": "Pichincha",
        "lat": -0.167413,
        "lng": -78.47972,
        "rating": 4.5,
        "website": "http://www.cuenta-me.com/",
        "keyword_found": "librería"
    },
    {
        "place_id": "ChIJHdUAtn2b1ZERYpswISDwBSA",
        "nombre": "Librería y Judaica Bet Iosef",
        "direccion": "VG5G+82X, El Morlán, Quito 170138, Ecuador",
        "provincia": "Pichincha",
        "lat": -0.1416263,
        "lng": -78.4748902,
        "rating": 4,
        "website": null,
        "keyword_found": "librería"
    },
    {
        "place_id": "ChIJrUIc1F6F1ZERdnFOyuk2iMs",
        "nombre": "Libros Sensoriales",
        "direccion": "Gral. José María Guerrero, Quito 170102, Ecuador",
        "provincia": "Pichincha",
        "lat": -0.1054097,
        "lng": -78.49535879999999,
        "rating": null,
        "website": null,
        "keyword_found": "librería"
    },
    {
        "place_id": "ChIJR1zTDbc8Ko4RcK9lc8Ed3fo",
        "nombre": "Agencia de liderazgo juvenil",
        "direccion": "Sheygua, y, Quito 170312, Ecuador",
        "provincia": "Pichincha",
        "lat": -0.0013898,
        "lng": -78.4479339,
        "rating": 4.5,
        "website": "http://www.starbooks593.com/",
        "keyword_found": "librería"
    },
    {
        "place_id": "ChIJe79ZTwC91ZERToNmPOG7jc0",
        "nombre": "Librería M&M",
        "direccion": "18 de Mayo 1427, Quito, Ecuador",
        "provincia": "Pichincha",
        "lat": -0.2949936,
        "lng": -78.46518739999999,
        "rating": 5,
        "website": null,
        "keyword_found": "librería"
    },
    {
        "place_id": "ChIJuwPpcuC81ZERUFNwq3IP1nw",
        "nombre": "Sion",
        "direccion": "AV GENERAL ENRÍQUEZ S/N, SANGOLQUI, MG9X+969, Quito 171103, Ecuador",
        "provincia": "Pichincha",
        "lat": -0.3315909,
        "lng": -78.45189549999999,
        "rating": 5,
        "website": null,
        "keyword_found": "librería"
    },
    {
        "place_id": "ChIJ71zoQwCb1ZERweJ9ednqVo8",
        "nombre": "Libro en la calle Colón - Librería",
        "direccion": "Av. Cristóbal Colón &, Quito 170515, Ecuador",
        "provincia": "Pichincha",
        "lat": -0.1989632,
        "lng": -78.49358629999999,
        "rating": 5,
        "website": null,
        "keyword_found": "librería"
    },
    {
        "place_id": "ChIJ38IUlg-J1ZERELWQ_6Xc3fY",
        "nombre": "Libreria, Papeleria Elizabeth",
        "direccion": "Mitad del Mundo, Quito 170312, Ecuador",
        "provincia": "Pichincha",
        "lat": -0.0110763,
        "lng": -78.44714619999999,
        "rating": 5,
        "website": null,
        "keyword_found": "librería"
    },
    {
        "place_id": "ChIJF6U3MCqb1ZERgoJvPVrmnOI",
        "nombre": "Libreria El Come Libros",
        "direccion": "Av. Cristóbal Colón Oe3-172, Quito 170520, Ecuador",
        "provincia": "Pichincha",
        "lat": -0.1962684,
        "lng": -78.499105,
        "rating": 4.8,
        "website": null,
        "keyword_found": "librería"
    },
    {
        "place_id": "ChIJbSAAGHOZ1ZERIWr0IvbjQFs",
        "nombre": "Imporlibros Libreria",
        "direccion": "Av. Mariscal Sucre &, Quito 170131, Ecuador",
        "provincia": "Pichincha",
        "lat": -0.239599,
        "lng": -78.53095139999999,
        "rating": 4.8,
        "website": null,
        "keyword_found": "librería"
    },
    {
        "place_id": "ChIJ46AaqqeP1ZERbE5yGio8yo8",
        "nombre": "IJPAPELERIA",
        "direccion": "WH63+FHP, Alcalá, Quito 170204, Ecuador",
        "provincia": "Pichincha",
        "lat": -0.0887844,
        "lng": -78.4460429,
        "rating": 5,
        "website": null,
        "keyword_found": "librería"
    },
    {
        "place_id": "ChIJmYQL0o2a1ZERWX6NzTL5OsU",
        "nombre": "Librería Studium - Plaza Mayor",
        "direccion": "Av. de la República Oe3-431 entre América, y, Quito 170147, Ecuador",
        "provincia": "Pichincha",
        "lat": -0.1763754,
        "lng": -78.4930524,
        "rating": 4.4,
        "website": "https://www.studium.com.ec/",
        "keyword_found": "librería"
    },
    {
        "place_id": "ChIJvUb6_yaa1ZERiC_BnpJPeVA",
        "nombre": "Libreria Papeleria Selecta",
        "direccion": "QFJV+W9Q, C. Guayaquil, Quito 170113, Ecuador",
        "provincia": "Pichincha",
        "lat": -0.2176578,
        "lng": -78.506512,
        "rating": 5,
        "website": null,
        "keyword_found": "librería"
    },
    {
        "place_id": "ChIJTT0TYCia1ZER_rp-dsfH02M",
        "nombre": "Libreria La Luz",
        "direccion": "Venezuela N7-63 y, Quito 170401, Ecuador",
        "provincia": "Pichincha",
        "lat": -0.2181625,
        "lng": -78.510071,
        "rating": 4.7,
        "website": "https://www.facebook.com/librerialuz1/",
        "keyword_found": "librería"
    },
    {
        "place_id": "ChIJhSEdEwCP1ZERN84CjErfdQE",
        "nombre": "ABC Libros y más",
        "direccion": "Av. Padre Luis Vaccari 17, Quito 170202, Ecuador",
        "provincia": "Pichincha",
        "lat": -0.1068437,
        "lng": -78.4540528,
        "rating": 5,
        "website": null,
        "keyword_found": "librería"
    },
    {
        "place_id": "ChIJh65nl0Ga1ZERP_q93UEZ9ws",
        "nombre": "Librería Didáctica",
        "direccion": "RF2X+RXH, Av. América, Quito 170520, Ecuador",
        "provincia": "Pichincha",
        "lat": -0.1979285,
        "lng": -78.5000202,
        "rating": 4,
        "website": null,
        "keyword_found": "librería"
    },
    {
        "place_id": "ChIJg2GT62Wa1ZER9wIP1xDUrwM",
        "nombre": "Librería Tolstoi",
        "direccion": "Vancouver, Quito 170515, Ecuador",
        "provincia": "Pichincha",
        "lat": -0.1914024,
        "lng": -78.4909827,
        "rating": 4.6,
        "website": "http://www.tolstoilibreria.com/",
        "keyword_found": "librería"
    },
    {
        "place_id": "ChIJ7YJzkTya1ZERzESbxGo0glA",
        "nombre": "Centro Cultural Casa Egüez",
        "direccion": "Juan Salinas &, Quito 170103, Ecuador",
        "provincia": "Pichincha",
        "lat": -0.210458,
        "lng": -78.5018668,
        "rating": 4.7,
        "website": "http://www.casaeguez.com/",
        "keyword_found": "librería"
    },
    {
        "place_id": "ChIJT7FGowya1ZERktTWiG6aPG4",
        "nombre": "Conde Mosca",
        "direccion": "Av. 6 de Diciembre N35-76 y, Quito 170504, Ecuador",
        "provincia": "Pichincha",
        "lat": -0.1817811,
        "lng": -78.4784815,
        "rating": 4.5,
        "website": null,
        "keyword_found": "librería"
    },
    {
        "place_id": "ChIJRYHMJ5Ca1ZERapGJ6x_JxjA",
        "nombre": "Libreria Realidades",
        "direccion": "Barón de Carondelet, Quito 170521, Ecuador",
        "provincia": "Pichincha",
        "lat": -0.1737673,
        "lng": -78.4884953,
        "rating": 4.7,
        "website": null,
        "keyword_found": "librería"
    },
    {
        "place_id": "ChIJMYfh4paZ1ZERw4kt6J0ZTOQ",
        "nombre": "Huiñai Librería",
        "direccion": "García Moreno, y S1-93, Quito 170405, Ecuador",
        "provincia": "Pichincha",
        "lat": -0.2233786,
        "lng": -78.51550739999999,
        "rating": 4.9,
        "website": null,
        "keyword_found": "librería"
    },
    {
        "place_id": "ChIJL5SdvxOa1ZERHPM4VKatbg4",
        "nombre": "Fondo de cultura económica",
        "direccion": "Av. 6 de Diciembre 26-05, Quito 170522, Ecuador",
        "provincia": "Pichincha",
        "lat": -0.2010861,
        "lng": -78.4857679,
        "rating": 4.7,
        "website": "http://www.fce.ec/",
        "keyword_found": "librería"
    },
    {
        "place_id": "ChIJEY-vCBGa1ZERmdCOcDWYEII",
        "nombre": "Librerías LNS Quito",
        "direccion": "Ave 12 de Octubre 88 y, Quito 170143, Ecuador",
        "provincia": "Pichincha",
        "lat": -0.2076027,
        "lng": -78.4892584,
        "rating": 4.3,
        "website": "https://lns.com.ec/",
        "keyword_found": "librería"
    },
    {
        "place_id": "ChIJEy_l3IGa1ZERKDDcSWNLTzA",
        "nombre": "Librería Rayuela",
        "direccion": "Germán Alemán E12-62, Quito 170504, Ecuador",
        "provincia": "Pichincha",
        "lat": -0.1798931,
        "lng": -78.4759199,
        "rating": 4.8,
        "website": "http://www.rayuela.ec/",
        "keyword_found": "librería"
    },
    {
        "place_id": "ChIJf1D1Zg6Z1ZER_BaYbjYYWDo",
        "nombre": "Libros Tu Mundo",
        "direccion": "Jerves, y, Quito 170522, Ecuador",
        "provincia": "Pichincha",
        "lat": -0.1970925,
        "lng": -78.4919268,
        "rating": 4.3,
        "website": "https://wa.link/dubbk2",
        "keyword_found": "librería"
    },
    {
        "place_id": "ChIJLzGLQnWb1ZERm6vLHW6iGBE",
        "nombre": "Librería Carpe Diem",
        "direccion": "Ramírez Dávalos &, Quito 170129, Ecuador",
        "provincia": "Pichincha",
        "lat": -0.2001963,
        "lng": -78.50020049999999,
        "rating": 4.9,
        "website": null,
        "keyword_found": "librería"
    },
    {
        "place_id": "ChIJ9Xam--yh1ZERQZagmYLVFA0",
        "nombre": "Libreria Gladys",
        "direccion": "MC5H+P35, Francisco Campos, Quito 170126, Ecuador",
        "provincia": "Pichincha",
        "lat": -0.3407485000000001,
        "lng": -78.57227379999999,
        "rating": null,
        "website": null,
        "keyword_found": "librería"
    },
    {
        "place_id": "ChIJRY1Dt_iP1ZERiY2KI7fjqVo",
        "nombre": "Librería Cultural",
        "direccion": "VG5G+FCW, Av. 6 de Diciembre, Quito 170138, Ecuador",
        "provincia": "Pichincha",
        "lat": -0.1412586,
        "lng": -78.47393,
        "rating": 4.3,
        "website": null,
        "keyword_found": "librería"
    },
    {
        "place_id": "ChIJYwJRJ6iZ1ZERmE-b84f2QCs",
        "nombre": "Napoleón Librería",
        "direccion": "Los Andes, Quito 170121, Ecuador",
        "provincia": "Pichincha",
        "lat": -0.2443213,
        "lng": -78.51385359999999,
        "rating": 4.5,
        "website": "https://www.facebook.com/Napoleo%CC%81n-Libreri%CC%81a-113396817080840/",
        "keyword_found": "librería"
    },
    {
        "place_id": "ChIJUbGmnxab1ZER8pdPgCpVJvo",
        "nombre": "El Mundo Del Libro Mariana De Jesús",
        "direccion": "edif. Samore II, Av. Mariana de Jesús Oe3-161 y, Quito 170520, Ecuador",
        "provincia": "Pichincha",
        "lat": -0.1871112,
        "lng": -78.49515009999999,
        "rating": 4.5,
        "website": "https://www.elmundodellibroec.com/",
        "keyword_found": "librería"
    },
    {
        "place_id": "ChIJw00Yxbia1ZER2iDUbLNg-sk",
        "nombre": "LIVRARIA QUITO",
        "direccion": "Gonzalo Noriega 39-55 y, Quito 170104, Ecuador",
        "provincia": "Pichincha",
        "lat": -0.1733552,
        "lng": -78.4748698,
        "rating": 4.8,
        "website": "http://www.livraria-ec.com/",
        "keyword_found": "librería"
    },
    {
        "place_id": "ChIJXfbqqHGa1ZERgfiuHn7ErdY",
        "nombre": "Librería Papiros",
        "direccion": "Av. 6 de Diciembre, Quito 170517, Ecuador",
        "provincia": "Pichincha",
        "lat": -0.1961768,
        "lng": -78.483316,
        "rating": 4.5,
        "website": null,
        "keyword_found": "librería"
    },
    {
        "place_id": "ChIJzSm5zYGb1ZER_O7nf77YUSg",
        "nombre": "La librería de la foch",
        "direccion": "La Mariscal foch, y, Quito 170143, Ecuador",
        "provincia": "Pichincha",
        "lat": -0.2041994,
        "lng": -78.4901861,
        "rating": 4.6,
        "website": "https://www.instagram.com/lalibreriadelafoch?igsh=cWM3cjRzdGs3cTBr&utm_source=qr",
        "keyword_found": "librería"
    },
    {
        "place_id": "ChIJtbD12XKF1ZERLE_3dnJs5Zc",
        "nombre": "Librería Científica Cotocollao",
        "direccion": "Lizardo Ruiz Nº 11-51 y, Emilio Bustamante Andrade, Quito 170103, Ecuador",
        "provincia": "Pichincha",
        "lat": -0.1146739,
        "lng": -78.4964404,
        "rating": 4.3,
        "website": null,
        "keyword_found": "librería"
    },
    {
        "place_id": "ChIJ72fXfT6a1ZERdHM6Rp9bG6I",
        "nombre": "Libreria La Cabaña",
        "direccion": "3, local 324, Centro Comercial Unicornio Nivel, Av. Río Amazonas N54-177 y, Quito 170507, Ecuador",
        "provincia": "Pichincha",
        "lat": -0.1769754,
        "lng": -78.48609619999999,
        "rating": 4.7,
        "website": "https://www.facebook.com/libreriavirtualdelecuador/",
        "keyword_found": "librería"
    },
    {
        "place_id": "ChIJ9bNJABSa1ZER6r2UQRptX0M",
        "nombre": "Books and Bits",
        "direccion": "Av. 6 de Diciembre, Quito 170513, Ecuador",
        "provincia": "Pichincha",
        "lat": -0.2060526,
        "lng": -78.4923118,
        "rating": 4,
        "website": "https://booksandbits.ec/",
        "keyword_found": "librería"
    },
    {
        "place_id": "ChIJFZJ7kGea1ZERi7gVan1w3IQ",
        "nombre": "Librería San Pablo",
        "direccion": "Avenida América No. 30-18 y Pascual de Andagoya, Quito 170129, Ecuador",
        "provincia": "Pichincha",
        "lat": -0.1906312,
        "lng": -78.4970115,
        "rating": 4.6,
        "website": "http://www.sanpablo.ec/",
        "keyword_found": "librería"
    },
    {
        "place_id": "ChIJa2cbUr2a1ZERqSlGGwuGt5c",
        "nombre": "CLC Ecuador",
        "direccion": "N42-138, Av. de la Prensa, Quito 170521, Ecuador",
        "provincia": "Pichincha",
        "lat": -0.1642576,
        "lng": -78.4869051,
        "rating": 4.8,
        "website": "http://www.clcecuador.com/",
        "keyword_found": "librería"
    },
    {
        "place_id": "ChIJ80JK5Gy91ZERZJA7xvXOkVs",
        "nombre": "Hipermarket",
        "direccion": "MHQ4+V7X, Sangolqui, Ecuador",
        "provincia": "Pichincha",
        "lat": -0.3102661,
        "lng": -78.4442766,
        "rating": 4.4,
        "website": null,
        "keyword_found": "venta de libros"
    },
    {
        "place_id": "ChIJb974yZeb1ZERI26SBrgcVsA",
        "nombre": "Libros Antiguos Quito (Renacer Libros)",
        "direccion": "Av 6 de Diciembre N37-237, entre las calles Comercio y Mercurio, frente a Montero, Quito 170504, Ecuador",
        "provincia": "Pichincha",
        "lat": -0.1751779,
        "lng": -78.4775883,
        "rating": 4.9,
        "website": "https://www.facebook.com/libreriaanticuariarenacercultural/",
        "keyword_found": "venta de libros"
    },
    {
        "place_id": "ChIJf3SFnYOa1ZEReimBvayqhDo",
        "nombre": "Quicentro",
        "direccion": "Avenida Naciones Unidas entre, Av. 6 de Diciembre, Quito 170135, Ecuador",
        "provincia": "Pichincha",
        "lat": -0.1762888,
        "lng": -78.4791894,
        "rating": 4.6,
        "website": "https://www.quicentro.com/",
        "keyword_found": "venta de libros"
    },
    {
        "place_id": "ChIJn5sONRKa1ZERgpUHNI6TkQ8",
        "nombre": "Tres Gatos",
        "direccion": "José Tamayo N23-59, Quito 170143, Ecuador",
        "provincia": "Pichincha",
        "lat": -0.2067729,
        "lng": -78.49051519999999,
        "rating": 4.7,
        "website": null,
        "keyword_found": "venta de libros"
    },
    {
        "place_id": "ChIJFaA7xh2b1ZERACiZuNe3heU",
        "nombre": "LibreriaBOOKSenQUITOLibros de segunda mano.Venta/Compra/Intercambio/Alquiler.",
        "direccion": "Av del Maestro Oe2 203 y, Quito 170512, Ecuador",
        "provincia": "Pichincha",
        "lat": -0.1246979,
        "lng": -78.48510999999999,
        "rating": 4.8,
        "website": "https://libreriaenquito.com/",
        "keyword_found": "venta de libros"
    },
    {
        "place_id": "ChIJt9848ESb1ZERwXrQyWsTtsg",
        "nombre": "Centro de vida nueva CVN",
        "direccion": "N 36-10 y, Av. 10 de Agosto, Quito 170507, Ecuador",
        "provincia": "Pichincha",
        "lat": -0.1777163,
        "lng": -78.4886077,
        "rating": 4.9,
        "website": "https://vidalibros.com.ec/",
        "keyword_found": "venta de libros"
    },
    {
        "place_id": "ChIJ6eKQzF-a1ZERBRi_igYE1nQ",
        "nombre": "Kosmos librería",
        "direccion": "Calle, Diego Martin de Utreras 748, Quito 170129, Ecuador",
        "provincia": "Pichincha",
        "lat": -0.1854202,
        "lng": -78.4989475,
        "rating": 5,
        "website": null,
        "keyword_found": "venta de libros"
    },
    {
        "place_id": "ChIJGbXgRROa1ZERAzlG6GF_Spk",
        "nombre": "Confederate Books",
        "direccion": "El Jardín E10-46 y, Quito 170135, Ecuador",
        "provincia": "Pichincha",
        "lat": -0.1803139,
        "lng": -78.478922,
        "rating": 4.8,
        "website": null,
        "keyword_found": "venta de libros"
    },
    {
        "place_id": "ChIJoYSq542a1ZERro-YWIrzj4A",
        "nombre": "Lobolunar",
        "direccion": "Centro comercial el bosque Av del parque Centro Comercial El Bosque Planta Baja L55 Ingresa por Puerta 8, Quito 170528, Ecuador",
        "provincia": "Pichincha",
        "lat": -0.162715,
        "lng": -78.4974691,
        "rating": 4.4,
        "website": "http://www.lobolunar.com/",
        "keyword_found": "venta de libros"
    },
    {
        "place_id": "ChIJl6nxrKKY1ZERUPsT2Jl03BQ",
        "nombre": "Quicentro Sur Shopping",
        "direccion": "Av. Morán Valverde 1000, Quito 170146, Ecuador",
        "provincia": "Pichincha",
        "lat": -0.2857545,
        "lng": -78.5433214,
        "rating": 4.5,
        "website": "http://www.quicentrosur.com/",
        "keyword_found": "venta de libros"
    },
    {
        "place_id": "ChIJi3GSig2b1ZERqCMDSaNXoSY",
        "nombre": "TOLOMEO",
        "direccion": "Av. 6 de Diciembre esquina, Quito 170143, Ecuador",
        "provincia": "Pichincha",
        "lat": -0.2057489,
        "lng": -78.4916329,
        "rating": 4.8,
        "website": null,
        "keyword_found": "venta de libros"
    },
    {
        "place_id": "ChIJw3ghYtuZ1ZERurIfhdLgE4A",
        "nombre": "Librería El Cazador De Historias",
        "direccion": "Francisco Gomez &, Quito 170111, Ecuador",
        "provincia": "Pichincha",
        "lat": -0.243572,
        "lng": -78.5201482,
        "rating": 4.6,
        "website": "https://instagram.com/libreriaelcazadorec?igshid=NjZiMGI4OTY=",
        "keyword_found": "venta de libros"
    },
    {
        "place_id": "ChIJL1V-7vaF1ZER8hBGcX2RDz8",
        "nombre": "El Mundo del Libro - Cotocollao",
        "direccion": "Alfareros N66-58 y, Quito 170301, Ecuador",
        "provincia": "Pichincha",
        "lat": -0.1139495,
        "lng": -78.49586870000002,
        "rating": 4.9,
        "website": "https://elmundodellibroec.com/",
        "keyword_found": "venta de libros"
    },
    {
        "place_id": "ChIJ9UI4FiCP1ZERdWihFZ_APlE",
        "nombre": "Papelería El Inventario SANTILLANA",
        "direccion": "WH59+RPG, Capitán Giovanni Calles, Quito 170206, Ecuador",
        "provincia": "Pichincha",
        "lat": -0.09056249999999999,
        "lng": -78.4309375,
        "rating": 4.6,
        "website": "https://beacons.ai/el_inventario",
        "keyword_found": "venta de libros"
    },
    {
        "place_id": "ChIJuTy9UhGa1ZERgBsb8IrPm2w",
        "nombre": "Cedisa Libros",
        "direccion": "Conde Ruiz de Castilla, Y 763, Quito 170143, Ecuador",
        "provincia": "Pichincha",
        "lat": -0.1900425,
        "lng": -78.4982931,
        "rating": 4.2,
        "website": "http://www.cedisalibros.com/",
        "keyword_found": "venta de libros"
    },
    {
        "place_id": "ChIJUbZICGGa1ZERpCYbA0xxgB8",
        "nombre": "Libreria New Time",
        "direccion": "RG74+Q7W, Quito 170147, Ecuador",
        "provincia": "Pichincha",
        "lat": -0.1855107,
        "lng": -78.494286,
        "rating": 4.9,
        "website": "https://www.sehs.ec/",
        "keyword_found": "venta de libros"
    },
    {
        "place_id": "ChIJ-f8PZDCR1ZER_cZCJLdFvWg",
        "nombre": "Mercado de Libros",
        "direccion": "Ventura Mall. Tercer nivel, local 46, Quito 170184, Ecuador",
        "provincia": "Pichincha",
        "lat": -0.2109753,
        "lng": -78.41552209999999,
        "rating": 4.5,
        "website": null,
        "keyword_found": "venta de libros"
    },
    {
        "place_id": "ChIJYwWemZai1ZERoyKGEj3b4TE",
        "nombre": "San Luis Shopping",
        "direccion": "Av. Gral. Rumiñahui, Quito. Centro Comercial San Luis Shopping, Quito, Ecuador",
        "provincia": "Pichincha",
        "lat": -0.3079671,
        "lng": -78.4500827,
        "rating": 4.6,
        "website": "https://sanluisshopping.com/",
        "keyword_found": "venta de libros"
    },
    {
        "place_id": "ChIJJ89GliWb1ZERP9_Fv6NL9X4",
        "nombre": "zonalegal",
        "direccion": "amazonas, y, Quito 170540, Ecuador",
        "provincia": "Pichincha",
        "lat": -0.1887523,
        "lng": -78.4879243,
        "rating": null,
        "website": "http://www.zonalegal.net/",
        "keyword_found": "venta de libros"
    },
    {
        "place_id": "ChIJJ7CRG2q91ZERmHIdhESC5nE",
        "nombre": "Megamaxi San Luis",
        "direccion": "AV. GENERAL RUMIÑAHUI E ISLA SANTA CLARA RUMIÑAHUI, Quito 171102, Ecuador",
        "provincia": "Pichincha",
        "lat": -0.3081705,
        "lng": -78.4504852,
        "rating": 4.6,
        "website": "https://www.megamaxi.com/",
        "keyword_found": "venta de libros"
    },
    {
        "place_id": "ChIJ9xjSFwya1ZERFIOCyCQWNpI",
        "nombre": "El Oso Lector",
        "direccion": "Avenida Coruña, y, Quito 170109, Ecuador",
        "provincia": "Pichincha",
        "lat": -0.2071068,
        "lng": -78.48211839999999,
        "rating": 4.8,
        "website": "http://www.elosolector.com/",
        "keyword_found": "venta de libros"
    },
    {
        "place_id": "ChIJ7QGO3T-a1ZER21oNCPGhjqc",
        "nombre": "LIBRERÍA MONSERRAT",
        "direccion": "Av. 10 de Agosto N21-231, Quito 170518, Ecuador",
        "provincia": "Pichincha",
        "lat": -0.2028068,
        "lng": -78.49835449999999,
        "rating": 4.4,
        "website": "http://www.libreriamonserrat.com/",
        "keyword_found": "venta de libros"
    },
    {
        "place_id": "ChIJ5b5dkUGF1ZERvo5Uhrcfpmc",
        "nombre": "Prolipa",
        "direccion": "Av. de la Prensa N58 154 y, Quito 170512, Ecuador",
        "provincia": "Pichincha",
        "lat": -0.1297566,
        "lng": -78.493669,
        "rating": 3.5,
        "website": "http://www.prolipa.com.ec/",
        "keyword_found": "venta de libros"
    },
    {
        "place_id": "ChIJ5U4roBGa1ZERg8x6iWfrwYs",
        "nombre": "Libros Y Fronteras",
        "direccion": "Av. 6 de Diciembre N33-13, Quito 170143, Ecuador",
        "provincia": "Pichincha",
        "lat": -0.1873447,
        "lng": -78.4794098,
        "rating": 4.9,
        "website": null,
        "keyword_found": "venta de libros"
    },
    {
        "place_id": "ChIJ8UU3-xGa1ZERVsJclriRy80",
        "nombre": "Supermaxi",
        "direccion": "Madrid S/N, Quito 170143, Ecuador",
        "provincia": "Pichincha",
        "lat": -0.2063677,
        "lng": -78.48729139999999,
        "rating": 4.5,
        "website": null,
        "keyword_found": "venta de libros"
    },
    {
        "place_id": "ChIJe6in5I-a1ZERv9HpRPozje8",
        "nombre": "Cevallos Librería Jurídica",
        "direccion": "Iñaquito, N37-168, Iñaquito 37-168, Quito 170105, Ecuador",
        "provincia": "Pichincha",
        "lat": -0.1738856,
        "lng": -78.4871491,
        "rating": 4.4,
        "website": "https://www.facebook.com/cevalloslibreria/",
        "keyword_found": "venta de libros"
    },
    {
        "place_id": "ChIJ03Yy6QWZ1ZERPgLgilMK4R8",
        "nombre": "Librería Cristiana Encuentro",
        "direccion": "Avenue Alonso de Angulo &, Quito 170601, Ecuador",
        "provincia": "Pichincha",
        "lat": -0.2486366,
        "lng": -78.5275788,
        "rating": 4.7,
        "website": null,
        "keyword_found": "venta de libros"
    },
    {
        "place_id": "ChIJsWEuRWGa1ZERjdlku3DbetQ",
        "nombre": "Bestseller Ecuador",
        "direccion": "Jorge Juan 131, Quito 170518, Ecuador",
        "provincia": "Pichincha",
        "lat": -0.1861593,
        "lng": -78.49267789999999,
        "rating": 4.1,
        "website": "http://bestseller-ec.com/",
        "keyword_found": "venta de libros"
    },
    {
        "place_id": "ChIJ03hdv0GF1ZERDLB9l9vN9jk",
        "nombre": "Checks Comisariato Del Libro",
        "direccion": "Av. de la Prensa N58-133, Quito 170511, Ecuador",
        "provincia": "Pichincha",
        "lat": -0.1298758,
        "lng": -78.4942808,
        "rating": 4,
        "website": null,
        "keyword_found": "venta de libros"
    },
    {
        "place_id": "ChIJhaJkE4WZ1ZERNCXPtrBdpKY",
        "nombre": "Super Akí Chillogallo",
        "direccion": "Luis Francisco López, Quito 170607, Ecuador",
        "provincia": "Pichincha",
        "lat": -0.2749105,
        "lng": -78.5540303,
        "rating": 4.5,
        "website": "http://www.aki.com.ec/",
        "keyword_found": "venta de libros"
    },
    {
        "place_id": "ChIJ_W7HC_ia1ZERfEOSYuYcmcE",
        "nombre": "Centro bíblico Verbo Divino",
        "direccion": "N 30-71, 170522, Primavera, Quito 170129, Ecuador",
        "provincia": "Pichincha",
        "lat": -0.1830165,
        "lng": -78.510435,
        "rating": 4.6,
        "website": "https://www.centrobiblicoquito.org/",
        "keyword_found": "venta de libros"
    },
    {
        "place_id": "ChIJQYRqDFOb1ZERUOrxmqbb6Ps",
        "nombre": "Almacenes Estuardo Sanchez",
        "direccion": "Av. 6 de Diciembre, Quito 170513, Ecuador",
        "provincia": "Pichincha",
        "lat": -0.1685541,
        "lng": -78.4758689,
        "rating": 4.3,
        "website": null,
        "keyword_found": "venta de libros"
    },
    {
        "place_id": "ChIJBQ03WYOa1ZERqJySOIgdglI",
        "nombre": "Librería Studium",
        "direccion": "Avenida de los Shyris, Quito E9-38 y Bélgica, Quito - Pichincha, Quito 170135, Ecuador",
        "provincia": "Pichincha",
        "lat": -0.1877509,
        "lng": -78.4827122,
        "rating": 4.2,
        "website": "https://studium.com.ec/",
        "keyword_found": "venta de libros"
    },
    {
        "place_id": "ChIJO5SaRCia1ZERZdi-WYRTKV4",
        "nombre": "Numismática y Filatelia, Librería Nacional",
        "direccion": "García Moreno N6-84 y, Quito 170401, Ecuador",
        "provincia": "Pichincha",
        "lat": -0.2183075,
        "lng": -78.51108099999999,
        "rating": 4.7,
        "website": null,
        "keyword_found": "venta de libros"
    },
    {
        "place_id": "ChIJH-ecbA2Z1ZERAMnKGGGZ88I",
        "nombre": "LIBRERIA Y PAPELERIA POPULAR",
        "direccion": "S9-573, Av. Mariscal Sucre S9-573, Quito, Ecuador",
        "provincia": "Pichincha",
        "lat": -0.2397376,
        "lng": -78.5306634,
        "rating": 4.2,
        "website": "http://www.libreriaspopulares.com/",
        "keyword_found": "venta de libros"
    },
    {
        "place_id": "ChIJTXMeYiaR1ZERT5eXCJywWLA",
        "nombre": "Megamaxi • Scala",
        "direccion": "Av. Oswaldo Guayasamín S/N, Quito 170157, Ecuador",
        "provincia": "Pichincha",
        "lat": -0.2064868,
        "lng": -78.42639559999999,
        "rating": 4.6,
        "website": "https://www.megamaxi.com/",
        "keyword_found": "venta de libros"
    },
    {
        "place_id": "ChIJf4ABSYeZ1ZERDkRmYL6cf8Y",
        "nombre": "Libreria La Prensa Católica",
        "direccion": "Calle Benalcazar, San Francisco N2-76, Quito 170401, Ecuador",
        "provincia": "Pichincha",
        "lat": -0.2217405,
        "lng": -78.51319459999999,
        "rating": 4.7,
        "website": "https://www.laprensacatolica.com/",
        "keyword_found": "venta de libros"
    },
    {
        "place_id": "ChIJgW1Mk3Cb1ZERUPCeH_ZgsHA",
        "nombre": "Ac copy Centro De Fotocopiado",
        "direccion": "Yaguachi E6-15 y, Pedro Moncayo 593, Quito 170136, Ecuador",
        "provincia": "Pichincha",
        "lat": -0.215214,
        "lng": -78.4967838,
        "rating": 5,
        "website": null,
        "keyword_found": "venta de libros"
    },
    {
        "place_id": "ChIJ4deatXuF1ZERWYBJM5iSSU4",
        "nombre": "DISTRIBUIDORA LA CONDAMINE",
        "direccion": "De Los Eucaliptos Oe3-105 y, Quito 170144, Ecuador",
        "provincia": "Pichincha",
        "lat": -0.1154236,
        "lng": -78.48430170000002,
        "rating": 4.5,
        "website": "http://www.lacondamine.com.ec/",
        "keyword_found": "venta de libros"
    },
    {
        "place_id": "ChIJN60DOhGa1ZER-Y0bVXtPOME",
        "nombre": "Cevallos librería jurídica - Matriz",
        "direccion": "Jerónimo Carrión N22-14 y, Quito 170523, Ecuador",
        "provincia": "Pichincha",
        "lat": -0.2076069,
        "lng": -78.4912768,
        "rating": 4.6,
        "website": "http://www.cevalloslibreriajuridica.com/",
        "keyword_found": "venta de libros"
    },
    {
        "place_id": "ChIJi3oqDsua1ZERKuvqWYF6ULE",
        "nombre": "Fundecion Verdades Biblicas",
        "direccion": "VF2X+P88, Quito 170132, Ecuador",
        "provincia": "Pichincha",
        "lat": -0.1482204,
        "lng": -78.501667,
        "rating": 3.9,
        "website": "http://www.verdadesbiblicas.org.ec/",
        "keyword_found": "venta de libros"
    },
    {
        "place_id": "ChIJIy1Zd8qa1ZERGyfCrxOOm8M",
        "nombre": "Edinun Matriz",
        "direccion": "Av. Occidental 63, Quito 170104, Ecuador",
        "provincia": "Pichincha",
        "lat": -0.1492853,
        "lng": -78.49836049999999,
        "rating": 4.3,
        "website": null,
        "keyword_found": "venta de libros"
    },
    {
        "place_id": "ChIJhc8WByGb1ZERHKatA4iGVoo",
        "nombre": "El Libro En La Calle",
        "direccion": "Versalles N21-220 y, San Gregorio esquina, Quito 170109, Ecuador",
        "provincia": "Pichincha",
        "lat": -0.2025175,
        "lng": -78.4998487,
        "rating": 5,
        "website": null,
        "keyword_found": "libros"
    },
    {
        "place_id": "ChIJt8RFin2b1ZERjZVmxZHv_ps",
        "nombre": "El Farol Book Café",
        "direccion": "Amazonas, y, Quito 170143, Ecuador",
        "provincia": "Pichincha",
        "lat": -0.2015873,
        "lng": -78.492536,
        "rating": 4.8,
        "website": null,
        "keyword_found": "libros"
    },
    {
        "place_id": "ChIJ3RCWEBm91ZERhIRzA8m392U",
        "nombre": "Checks Comisariato Del Libro River Mall",
        "direccion": "Centro Comercial River Mall, Av. General Enriquez, Quito 171103, Ecuador",
        "provincia": "Pichincha",
        "lat": -0.3242275,
        "lng": -78.4488598,
        "rating": 4.2,
        "website": "https://checks.ec/tienda/",
        "keyword_found": "libros"
    },
    {
        "place_id": "ChIJD9u0Bt-b1ZERd6DRxhkJrbU",
        "nombre": "La casita del Libro",
        "direccion": "Manuel Larrea, Quito 170103, Ecuador",
        "provincia": "Pichincha",
        "lat": -0.2062766,
        "lng": -78.50097679999999,
        "rating": 5,
        "website": null,
        "keyword_found": "libros"
    },
    {
        "place_id": "ChIJQc4vNUOb1ZERWg7P3AKCss8",
        "nombre": "LIBRERÍA EL GRAN LIBRO JURÍDICO",
        "direccion": "CORONEL CONOR ENTRE JOSE ARIZAGA Y ALFONSO PEREIRA, CONJUNTOS, Quito 170102, Ecuador",
        "provincia": "Pichincha",
        "lat": -0.1705258,
        "lng": -78.4860601,
        "rating": 4.5,
        "website": "http://www.elgranlibrojuridico.com/",
        "keyword_found": "libros"
    },
    {
        "place_id": "ChIJW6PbWZ-Z1ZER22Hhd9OWg3A",
        "nombre": "Libronauta Libreria",
        "direccion": "Av. Cardenal de la Torre S13-392, Quito 170601, Ecuador",
        "provincia": "Pichincha",
        "lat": -0.2589889,
        "lng": -78.5346222,
        "rating": 4.8,
        "website": null,
        "keyword_found": "libros"
    },
    {
        "place_id": "ChIJmwZ4Dqmb1ZER4mfyXYBDlP8",
        "nombre": "La libroteca",
        "direccion": "18 de Septiembre E2-55 y, Quito 170143, Ecuador",
        "provincia": "Pichincha",
        "lat": -0.2058409,
        "lng": -78.4985774,
        "rating": 4.6,
        "website": "http://wa.me/593997921550",
        "keyword_found": "libros"
    },
    {
        "place_id": "ChIJ4XpnvkKb1ZERtms5f-1Y5sA",
        "nombre": "Bookish Librería",
        "direccion": "Toledo 24-741 y, Quito 170143, Ecuador",
        "provincia": "Pichincha",
        "lat": -0.2045997,
        "lng": -78.4814719,
        "rating": 5,
        "website": "https://www.instagram.com/bookish.libreria/",
        "keyword_found": "libros"
    },
    {
        "place_id": "ChIJGfJpuJ-b1ZER7YkK1GeLhYk",
        "nombre": "Librería Cosmonauta",
        "direccion": "Giacomo Roca N33-32 y, Quito 170602, Ecuador",
        "provincia": "Pichincha",
        "lat": -0.1869768,
        "lng": -78.4783915,
        "rating": 4.9,
        "website": "https://www.facebook.com/cosmonautalibreria",
        "keyword_found": "libros"
    },
    {
        "place_id": "ChIJS2zLpPJtLZARlOwlsHUCKA8",
        "nombre": "Spiritual Library Foundation Jesus of Mercy",
        "direccion": "Av. Eloy Alfaro 29-144, Quito 170515, Ecuador",
        "provincia": "Pichincha",
        "lat": -0.1940926,
        "lng": -78.4919012,
        "rating": 4.7,
        "website": "http://www.fundacionjesusdelamisericordia.com/",
        "keyword_found": "libros"
    },
    {
        "place_id": "ChIJHZfRG16b1ZERy-w12RWixsI",
        "nombre": "La Bodeguita Librería",
        "direccion": "220, Quito 170129, Ecuador",
        "provincia": "Pichincha",
        "lat": -0.1901451,
        "lng": -78.4989021,
        "rating": 5,
        "website": "https://www.instagram.com/librosenecuador/",
        "keyword_found": "libros"
    },
    {
        "place_id": "ChIJMySsliGa1ZERG3AZZSzaVhk",
        "nombre": "Andycopy",
        "direccion": "Luis Sodiro, Quito 170403, Ecuador",
        "provincia": "Pichincha",
        "lat": -0.2162238,
        "lng": -78.499878,
        "rating": 4.5,
        "website": null,
        "keyword_found": "libros"
    },
    {
        "place_id": "ChIJNU3Rozqb1ZERuUlr-pzqq1U",
        "nombre": "LIBRERIRA ARQUIDIOCESANA DE QUITO",
        "direccion": "QFJQ+6HF, Venezuela, Quito 170401, Ecuador",
        "provincia": "Pichincha",
        "lat": -0.2194383,
        "lng": -78.5110933,
        "rating": 5,
        "website": "https://www.arquidiocesisdequito.com.ec/articulos-religiosos/san-antonio.html",
        "keyword_found": "bookstore"
    },
    {
        "place_id": "ChIJvYciEBOa1ZEROK4e3PHzWaY",
        "nombre": "Bookshop (English, Spanish, French, Etc)",
        "direccion": "QFJR+V5V, Quito 170143, Ecuador",
        "provincia": "Pichincha",
        "lat": -0.2177706,
        "lng": -78.50957989999999,
        "rating": 4.6,
        "website": null,
        "keyword_found": "bookstore"
    },
    {
        "place_id": "ChIJKYVzF0aZ1ZER5WzXRIRoxtA",
        "nombre": "Mangatana_SolandaOficial",
        "direccion": "S24A y, Av. Cardenal de la Torre Oe5-60, Quito 170102, Ecuador",
        "provincia": "Pichincha",
        "lat": -0.2677404,
        "lng": -78.5460221,
        "rating": null,
        "website": null,
        "keyword_found": "bookstore"
    },
    {
        "place_id": "ChIJh5MwkxGa1ZERbu6EcodSIks",
        "nombre": "Abya Yala Bookstore",
        "direccion": "en el Bloque A de la Universidad Politécnica Salesina, N24-22 y, Ave 12 de Octubre, Quito 170517, Ecuador",
        "provincia": "Pichincha",
        "lat": -0.2072643,
        "lng": -78.48859569999999,
        "rating": 4.8,
        "website": "https://abyayala.org.ec/",
        "keyword_found": "bookstore"
    },
    {
        "place_id": "ChIJA-CS4I2a1ZER-b8jGs3iaXo",
        "nombre": "Plaza Las Américas",
        "direccion": "Avenida NNUU Oe4-27 y, Av. de la República 170508, Quito 170102, Ecuador",
        "provincia": "Pichincha",
        "lat": -0.1749367,
        "lng": -78.49288,
        "rating": 4.5,
        "website": "http://www.plazalasamericas.ec/",
        "keyword_found": "bookstore"
    },
    {
        "place_id": "ChIJvd-of-aQ1ZERzBdTttsHXuA",
        "nombre": "Centro Comercial Plaza Cumbayá",
        "direccion": "av. interoceanica, y, Quito 170157, Ecuador",
        "provincia": "Pichincha",
        "lat": -0.1971699,
        "lng": -78.4383929,
        "rating": 4.3,
        "website": "http://www.plazacumbaya.ec/",
        "keyword_found": "bookstore"
    },
    {
        "place_id": "ChIJkXcaytOb1ZERpDF_KLhWdus",
        "nombre": "Centro Comercial Olimpico",
        "direccion": "Av. 6 de Diciembre N52-72, Quito 170504, Ecuador",
        "provincia": "Pichincha",
        "lat": -0.1743866,
        "lng": -78.47696060000001,
        "rating": 4.2,
        "website": null,
        "keyword_found": "bookstore"
    },
    {
        "place_id": "ChIJ_Q2jtZCa1ZERd3GtBJdJBNc",
        "nombre": "Centro Comercial La Y",
        "direccion": "Av. América, Quito 170104, Ecuador",
        "provincia": "Pichincha",
        "lat": -0.169523,
        "lng": -78.488011,
        "rating": 3.9,
        "website": null,
        "keyword_found": "bookstore"
    },
    {
        "place_id": "ChIJzTVTM-eQ1ZERPM0uP0EAn4s",
        "nombre": "Paseo San Francisco",
        "direccion": "Av. Interoceánica, y S/N, Quito 170157, Ecuador",
        "provincia": "Pichincha",
        "lat": -0.1991495,
        "lng": -78.436578,
        "rating": 4.5,
        "website": "http://www.paseosanfrancisco.ec/",
        "keyword_found": "bookstore"
    },
    {
        "place_id": "ChIJsQDYTtyQ1ZERJZWBLcMvpLs",
        "nombre": "Giving Tree Books",
        "direccion": "Centro Comercial La Esquina, Chimborazo, Quito 170157, Ecuador",
        "provincia": "Pichincha",
        "lat": -0.1974419,
        "lng": -78.4314066,
        "rating": 4.9,
        "website": "http://www.givingtreebooks.com/",
        "keyword_found": "bookstore"
    },
    {
        "place_id": "ChIJ_zVO9eGQ1ZERQKu-OGG3K9I",
        "nombre": "Centro comercial Esquina",
        "direccion": "CC La Esquina Local 12, Quito 170157, Ecuador",
        "provincia": "Pichincha",
        "lat": -0.1970315,
        "lng": -78.4310264,
        "rating": 4.4,
        "website": null,
        "keyword_found": "bookstore"
    },
    {
        "place_id": "ChIJZ6gViwmF1ZERxZSOPuYPGC8",
        "nombre": "Mega Popular Norte",
        "direccion": "Av. de la Prensa, Quito 170511, Ecuador",
        "provincia": "Pichincha",
        "lat": -0.1423059,
        "lng": -78.49268,
        "rating": 4.2,
        "website": "https://megalibreriapopular.com/",
        "keyword_found": "bookstore"
    },
    {
        "place_id": "ChIJPYyCNF6a1ZERUAyHwGQK32M",
        "nombre": "Casa Mitomana Coworking",
        "direccion": "n 31-296, Diego Martin de Utreras 170129, Quito, Ecuador",
        "provincia": "Pichincha",
        "lat": -0.1854711,
        "lng": -78.49892679999999,
        "rating": 4.6,
        "website": null,
        "keyword_found": "bookstore"
    },
    {
        "place_id": "ChIJZ4jJ8vaR1ZERZOVy7WO9dCU",
        "nombre": "Papeleria Chinita",
        "direccion": "Nayon Quito-Ecuador 19 de Diciembre, N1-58 y, Av. Atahualpa, Quito 170170, Ecuador",
        "provincia": "Pichincha",
        "lat": -0.1578137,
        "lng": -78.4360112,
        "rating": 4.8,
        "website": null,
        "keyword_found": "bookstore"
    },
    {
        "place_id": "ChIJj6NMTSKa1ZERYa1tgI-JXHE",
        "nombre": "Librería Jurídica O.N.I.",
        "direccion": "Avenida 6 de Diciembre Sodiro Edf. Atenas, P.B, Quito 170136, Ecuador",
        "provincia": "Pichincha",
        "lat": -0.2137187,
        "lng": -78.5006629,
        "rating": 4.1,
        "website": "http://libreriajuridicaoni.online/",
        "keyword_found": "bookstore"
    },
    {
        "place_id": "ChIJ9VuLC56a1ZER08CHw5q7fmE",
        "nombre": "Cogiler",
        "direccion": "Av. 6 de Diciembre, Quito 170517, Ecuador",
        "provincia": "Pichincha",
        "lat": -0.1994332,
        "lng": -78.4850953,
        "rating": 4,
        "website": "http://cogiler.com/",
        "keyword_found": "bookstore"
    },
    {
        "place_id": "ChIJpyuncMqa1ZERtNe5Uc-k1v8",
        "nombre": "Checks Comisariato del Libro Occidental",
        "direccion": "Av. Mariscal Sucre, Quito 170104, Ecuador",
        "provincia": "Pichincha",
        "lat": -0.1493124,
        "lng": -78.4983484,
        "rating": 4.3,
        "website": null,
        "keyword_found": "bookstore"
    },
    {
        "place_id": "ChIJlcbJDLGa1ZERwnyWqilHfSs",
        "nombre": "Cultural bookstore + The Trippy Circus Tent",
        "direccion": "Av de la Prensa N47 295 y Salazar, Av. de la Prensa N47 295, Quito 170104, Ecuador",
        "provincia": "Pichincha",
        "lat": -0.1522501,
        "lng": -78.4898499,
        "rating": 4.2,
        "website": null,
        "keyword_found": "bookstore"
    },
    {
        "place_id": "ChIJ5yOg-Gia1ZER4m0IFAQqzUU",
        "nombre": "Libreria Paulinas",
        "direccion": "Selva Alegre 95, Quito 170518, Ecuador",
        "provincia": "Pichincha",
        "lat": -0.194223,
        "lng": -78.4953453,
        "rating": 4.8,
        "website": null,
        "keyword_found": "bookstore"
    },
    {
        "place_id": "ChIJ0dRWj4Wa1ZERwpISWNiE4K8",
        "nombre": "Unicornio II Edificio Empresarial",
        "direccion": "Juan González N36-80, Quito 170135, Ecuador",
        "provincia": "Pichincha",
        "lat": -0.1769581,
        "lng": -78.4861059,
        "rating": 4.2,
        "website": null,
        "keyword_found": "bookstore"
    },
    {
        "place_id": "ChIJ__-_EoeZ1ZERvYxdIjUU-tA",
        "nombre": "Librería San Pablo",
        "direccion": "Pasaje Amador, García Moreno 3-56 y, Quito 170401, Ecuador",
        "provincia": "Pichincha",
        "lat": -0.2208959,
        "lng": -78.5132601,
        "rating": 4.4,
        "website": "http://www.sanpablo.ec/",
        "keyword_found": "bookstore"
    },
    {
        "place_id": "ChIJv4XVroGa1ZERW6s47_m15Fc",
        "nombre": "Megamaxi",
        "direccion": "Av. 6 de Diciembre, Quito 170135, Ecuador",
        "provincia": "Pichincha",
        "lat": -0.1806505,
        "lng": -78.4780813,
        "rating": 4.6,
        "website": "http://www.megamaxi.com/",
        "keyword_found": "book shop"
    },
    {
        "place_id": "ChIJ0aamggCY1ZERy7WGhtOz7qw",
        "nombre": "Tía Conocoto",
        "direccion": "Pedro Bruning, y, Quito 170801, Ecuador",
        "provincia": "Pichincha",
        "lat": -0.293493,
        "lng": -78.478515,
        "rating": 4.1,
        "website": "https://www.tia.com.ec/",
        "keyword_found": "book shop"
    },
    {
        "place_id": "ChIJIx2LoASZ1ZERs-RuLsDvKa0",
        "nombre": "Minka Chocolate Experience",
        "direccion": "Junto al Hotel Casa Gangotena ( Plaza, Simon Bolivar OE6-15 y, Quito 170130, Ecuador",
        "provincia": "Pichincha",
        "lat": -0.2212752,
        "lng": -78.515163,
        "rating": 4.5,
        "website": "http://www.minkachocolate.com/",
        "keyword_found": "book shop"
    },
    {
        "place_id": "ChIJaXP5eVOF1ZERi0yEcse7760",
        "nombre": "Papeleria Exito",
        "direccion": "José Rafael Bustamante E3-96 y, Quito 170138, Ecuador",
        "provincia": "Pichincha",
        "lat": -0.1444018,
        "lng": -78.4815407,
        "rating": 4.4,
        "website": null,
        "keyword_found": "book shop"
    },
    {
        "place_id": "ChIJtbofVQma1ZERse9G98gODJI",
        "nombre": "Paccari Experience House",
        "direccion": "Julio Zaldumbide N24-713 Y, Quito 170150, Ecuador",
        "provincia": "Pichincha",
        "lat": -0.205939,
        "lng": -78.4808173,
        "rating": 4.7,
        "website": "https://pacari.com/?utm_source=Google&utm_medium=ornganic&utm_campaign=gmb",
        "keyword_found": "book shop"
    },
    {
        "place_id": "ChIJ15hMprCZ1ZERIg7EgQ5Qrpo",
        "nombre": "Coral Hipermercados - Magdalena",
        "direccion": "QF6G+JMF, Av Rodrigo de Chávez, Quito 170111, Ecuador",
        "provincia": "Pichincha",
        "lat": -0.2384474,
        "lng": -78.5233191,
        "rating": 4.4,
        "website": "http://www.coralhipermercados.com/",
        "keyword_found": "book shop"
    },
    {
        "place_id": "ChIJuS463QyQ1ZER3VCkv2RpUuk",
        "nombre": "Supermaxi Eloy Alfaro",
        "direccion": "Av. Eloy Alfaro 44-110, Quito 170503, Ecuador",
        "provincia": "Pichincha",
        "lat": -0.1638716,
        "lng": -78.4673464,
        "rating": 4.6,
        "website": null,
        "keyword_found": "book shop"
    },
    {
        "place_id": "ChIJW8VcP3OP1ZERLNbI8EkPnrM",
        "nombre": "Gran AKÍ Carapungo",
        "direccion": "Av. Padre Luis Vaccari, Quito 130802, Ecuador",
        "provincia": "Pichincha",
        "lat": -0.1038367,
        "lng": -78.4535079,
        "rating": 4.3,
        "website": "http://www.aki.com.ec/",
        "keyword_found": "book shop"
    },
    {
        "place_id": "ChIJH5Azg-GZ1ZERdtxdkfS5riQ",
        "nombre": "Hiper VIM",
        "direccion": "Av. Solanada y Pasaje Oe3I S24-63 Av. Solanada y, Oe3I S24-63, Quito 170131, Ecuador",
        "provincia": "Pichincha",
        "lat": -0.2730706,
        "lng": -78.5415575,
        "rating": 3,
        "website": null,
        "keyword_found": "book shop"
    },
    {
        "place_id": "ChIJ31dXgqia1ZERpgrxt-rwJmo",
        "nombre": "Fantasias Vera Inca",
        "direccion": "Av. El Inca 52, Quito 170138, Ecuador",
        "provincia": "Pichincha",
        "lat": -0.155724,
        "lng": -78.4785464,
        "rating": 4.2,
        "website": "http://www.fantasiasvera.com.ec/",
        "keyword_found": "book shop"
    },
    {
        "place_id": "ChIJGWiDZACR1ZERvyptr76NIDE",
        "nombre": "Coral Hipermercados - Tumbaco",
        "direccion": "QJM3+GFJ, Av. Oswaldo Guayasamín, Quito 170184, Ecuador",
        "provincia": "Pichincha",
        "lat": -0.2161667,
        "lng": -78.3963529,
        "rating": 4.4,
        "website": "http://www.coralhipermercados.com/",
        "keyword_found": "book shop"
    },
    {
        "place_id": "ChIJ3f_lYZiY1ZERpCx6q7cCQhI",
        "nombre": "Megamaxi Quicentro South",
        "direccion": "Av. Morán Valverde, Quito 170606, Ecuador",
        "provincia": "Pichincha",
        "lat": -0.2864051,
        "lng": -78.5419903,
        "rating": 4.5,
        "website": "https://www.instagram.com/megamaxiec/",
        "keyword_found": "book shop"
    },
    {
        "place_id": "ChIJvwm0EY-a1ZER0rcjl1AJswg",
        "nombre": "EduSol",
        "direccion": "E1- y, Av. 10 de Agosto & Corea, Quito 170135, Ecuador",
        "provincia": "Pichincha",
        "lat": -0.177113,
        "lng": -78.4883042,
        "rating": 4.1,
        "website": "http://edu-sol.com/",
        "keyword_found": "book shop"
    },
    {
        "place_id": "ChIJJ_qSeE2Z1ZER3tkFkxfiVEg",
        "nombre": "EL MERKATO Solanda",
        "direccion": "José María Alemán S19-84 y, Quito 170606, Ecuador",
        "provincia": "Pichincha",
        "lat": -0.2676092,
        "lng": -78.5389955,
        "rating": 4.5,
        "website": "http://www.elmerkato.com/",
        "keyword_found": "book shop"
    },
    {
        "place_id": "ChIJAQAA_1uF1ZERwZYAw6f4ens",
        "nombre": "Supermaxi",
        "direccion": "Av. Galo Plaza Lasso, y, Quito 170512, Ecuador",
        "provincia": "Pichincha",
        "lat": -0.1313664,
        "lng": -78.4818365,
        "rating": 4.5,
        "website": null,
        "keyword_found": "book shop"
    },
    {
        "place_id": "ChIJ1WDJV5ea1ZERNLsIlNwAZJo",
        "nombre": "Coral Hipermercados - La Y",
        "direccion": "Av. 10 de Agosto, Sector la Y, y, Quito 170507, Ecuador",
        "provincia": "Pichincha",
        "lat": -0.1695209,
        "lng": -78.4867929,
        "rating": 4.3,
        "website": "http://www.coralhipermercados.com/",
        "keyword_found": "book shop"
    },
    {
        "place_id": "ChIJ1caolzYUUocRUtzJW6GzBvA",
        "nombre": "TAMA Shop",
        "direccion": "San Bartolo, Calle Palenque, entre Catarama, del Conjunto Villa Real. Sur de Quito, y Local #13, Quito 170605, Ecuador",
        "provincia": "Pichincha",
        "lat": -0.2696957,
        "lng": -78.5254624,
        "rating": 5,
        "website": "https://tamashopec.com/",
        "keyword_found": "book shop"
    },
    {
        "place_id": "ChIJ2wKblJuF1ZERezRFHqhpu38",
        "nombre": "Megamaxi El Condado",
        "direccion": "AV. DE LA PRENSA, AV. KENNEDY S/N, Quito 170134, Ecuador",
        "provincia": "Pichincha",
        "lat": -0.103299,
        "lng": -78.49106479999999,
        "rating": 4.5,
        "website": "https://www.megamaxi.com/",
        "keyword_found": "book shop"
    },
    {
        "place_id": "ChIJORqWiYSP1ZERROPLmbs0uc0",
        "nombre": "Megamaxi Portal",
        "direccion": "Capitán Giovanni Calles 1 y, Quito 170203, Ecuador",
        "provincia": "Pichincha",
        "lat": -0.1069389,
        "lng": -78.45852789999999,
        "rating": 4.7,
        "website": "https://www.megamaxi.com/",
        "keyword_found": "book shop"
    },
    {
        "place_id": "ChIJIee6k8KY1ZERal885Bmsap0",
        "nombre": "Black Book Bench & Graffiti Shop",
        "direccion": "teniente hugo ortiz, frente a la parada del trole quito sur, y, Quito 170606, Ecuador",
        "provincia": "Pichincha",
        "lat": -0.2613537,
        "lng": -78.530864,
        "rating": 4.7,
        "website": null,
        "keyword_found": "book shop"
    },
    {
        "place_id": "ChIJC4yBp7mb1ZERJPBfD7sWjDw",
        "nombre": "Benchtime Bakery & Cafe",
        "direccion": "Suiza, Edificio Elize Plus (PB, Y, Quito 170135, Ecuador",
        "provincia": "Pichincha",
        "lat": -0.1859484,
        "lng": -78.4819235,
        "rating": 4.6,
        "website": "http://www.mibenchtime.com/",
        "keyword_found": "book shop"
    },
    {
        "place_id": "ChIJm2ufowh91ZERi9QXc37o98Q",
        "nombre": "Tours de Chocolate y Café / Quinde Mindo.",
        "direccion": "Thomas y Via, Cesar Garzon, Mindo 170167, Ecuador",
        "provincia": "Pichincha",
        "lat": -0.0551579,
        "lng": -78.773404,
        "rating": 5,
        "website": null,
        "keyword_found": "book shop"
    },
    {
        "place_id": "ChIJYSfQ_Hub1ZERqpYhuEPwPUw",
        "nombre": "Sari Popular",
        "direccion": "Av. Padre Luis Vaccari 14-175 y, Quito 170203, Ecuador",
        "provincia": "Pichincha",
        "lat": -0.0965428,
        "lng": -78.4532621,
        "rating": 4.9,
        "website": null,
        "keyword_found": "book shop"
    },
    {
        "place_id": "ChIJ-d6kHTma1ZERS1L7UoOEGF8",
        "nombre": "Vernaza Grafic - Quito Matriz",
        "direccion": "Av. Universitaria Oe5-254, Quito 170521, Ecuador",
        "provincia": "Pichincha",
        "lat": -0.2037191,
        "lng": -78.5056184,
        "rating": 4.9,
        "website": "https://www.vernazagrafic.com/",
        "keyword_found": "book shop"
    },
    {
        "place_id": "ChIJM8o8Bf-b1ZERrYuF6l8O-Ao",
        "nombre": "Tiresias Cuenta publishing house-bookshop",
        "direccion": "Madrid E13-128 y, Quito 170143, Ecuador",
        "provincia": "Pichincha",
        "lat": -0.2097967,
        "lng": -78.4843301,
        "rating": 4.8,
        "website": "https://instagram.com/tiresiascuentaeditorial?igshid=MjkzY2Y1YTY=",
        "keyword_found": "book shop"
    },
    {
        "place_id": "ChIJ_4r55PkIKo4RTVNHuH41gas",
        "nombre": "Gran AKÍ Cayambe",
        "direccion": "2VR4+92C, Restauración, Cayambe 170202, Ecuador",
        "provincia": "Pichincha",
        "lat": 0.0403424,
        "lng": -78.1453872,
        "rating": 4.3,
        "website": "http://www.aki.com.ec/",
        "keyword_found": "book shop"
    },
    {
        "place_id": "ChIJSTvTLiea1ZERnIkTUw7m-6s",
        "nombre": "Coffee Romance",
        "direccion": "Los Rios &, Quito 170136, Ecuador",
        "provincia": "Pichincha",
        "lat": -0.2180574,
        "lng": -78.50406149999999,
        "rating": 4.8,
        "website": null,
        "keyword_found": "book shop"
    },
    {
        "place_id": "ChIJ4cINFp2F1ZER1qoda2tqcPQ",
        "nombre": "Supermaxi Carcelén",
        "direccion": "Av Diego Vásquez de Cepeda 77-464, Quito 170310, Ecuador",
        "provincia": "Pichincha",
        "lat": -0.0915053,
        "lng": -78.4749058,
        "rating": 4.5,
        "website": null,
        "keyword_found": "book shop"
    },
    {
        "place_id": "ChIJBQe01Hia1ZERunQNe1qbL_A",
        "nombre": "Minimarket Expanda 2",
        "direccion": "Sergio Javita, Bellavista 191, Quito, Pichincha 170135, Ecuador",
        "provincia": "Pichincha",
        "lat": -0.1878042,
        "lng": -78.47774799999999,
        "rating": 4.8,
        "website": null,
        "keyword_found": "book shop"
    },
    {
        "place_id": "ChIJx2KmrV-P1ZERkIDkuTsRARY",
        "nombre": "UMC Papelería",
        "direccion": "Alejandro Ponce Borja N79-31 y, Quito 170302, Ecuador",
        "provincia": "Pichincha",
        "lat": -0.0896454,
        "lng": -78.47252519999999,
        "rating": 4.8,
        "website": null,
        "keyword_found": "papelería"
    },
    {
        "place_id": "ChIJy1efxgyF1ZERyDqlgv-28fk",
        "nombre": "Pichincha Mi Vecino Cotocollao",
        "direccion": "Eugenio Moreno 65-85, Quito 170103, Ecuador",
        "provincia": "Pichincha",
        "lat": -0.1157983,
        "lng": -78.4989217,
        "rating": 4.6,
        "website": null,
        "keyword_found": "papelería"
    },
    {
        "place_id": "ChIJ70FgpVmF1ZERjCIhVF9j8QM",
        "nombre": "Papelería SENT",
        "direccion": "Manuel Ugarte Oe12-271, Quito 170144, Ecuador",
        "provincia": "Pichincha",
        "lat": -0.1135945,
        "lng": -78.4513391,
        "rating": 4.6,
        "website": "https://www.facebook.com/PapeleriaSENT",
        "keyword_found": "papelería"
    },
    {
        "place_id": "ChIJS_9ciBya1ZERmNagB2ToCZQ",
        "nombre": "Bazar Y Papelería \"JIREH\"",
        "direccion": "Calle, Luis Godin N18-67, Quito 170136, Ecuador",
        "provincia": "Pichincha",
        "lat": -0.2160125,
        "lng": -78.4892575,
        "rating": 4.8,
        "website": null,
        "keyword_found": "papelería"
    },
    {
        "place_id": "ChIJuSDLzYOQ1ZERH3RCyzeasSc",
        "nombre": "Papelería Alexander “Cyber”",
        "direccion": "Diego de Brieda E17-18 Y, Quito 170135, Ecuador",
        "provincia": "Pichincha",
        "lat": -0.1884474,
        "lng": -78.4721845,
        "rating": 4.3,
        "website": null,
        "keyword_found": "papelería"
    },
    {
        "place_id": "ChIJFdHir9O81ZERvkZOllhMb1o",
        "nombre": "Papelería Fajardo",
        "direccion": "MG7H+885 Fajardo, Calle Y, Quito, Ecuador",
        "provincia": "Pichincha",
        "lat": -0.336742,
        "lng": -78.4716329,
        "rating": 4,
        "website": null,
        "keyword_found": "papelería"
    },
    {
        "place_id": "ChIJP6Iv_FuP1ZERUr2r3sZZjqM",
        "nombre": "Bazar y papelería Lexmay",
        "direccion": "Republica Dominicana, Quito N83-28 y Alonso Diaz, Malamer, Quito 170120, Ecuador",
        "provincia": "Pichincha",
        "lat": -0.0858712,
        "lng": -78.4691251,
        "rating": 4.2,
        "website": null,
        "keyword_found": "papelería"
    },
    {
        "place_id": "ChIJa-3lWIuP1ZERVeRsyQveM-8",
        "nombre": "PapelerIa Planeta Escolar",
        "direccion": "Francisco de la Torre N59-45, Quito 170133, Ecuador",
        "provincia": "Pichincha",
        "lat": -0.1273746,
        "lng": -78.4696474,
        "rating": 4.3,
        "website": "https://www.facebook.com/JuanCVacaC/?ref=bookmarks",
        "keyword_found": "papelería"
    },
    {
        "place_id": "ChIJcQ84eACY1ZERmsZLGMaArto",
        "nombre": "Bazar y Papelería Rodos",
        "direccion": "Polit Lasso E1-56, Quito 170801, Ecuador",
        "provincia": "Pichincha",
        "lat": -0.2934017,
        "lng": -78.47748159999999,
        "rating": 4.8,
        "website": null,
        "keyword_found": "papelería"
    },
    {
        "place_id": "ChIJtx4EJI2Z1ZER0nP_z6AmU1Y",
        "nombre": "Papeleria \"LOS Pekes\"",
        "direccion": "CARAN N4-53 AZUL, Casa Guarderas, Av 10 de Agosto, Quito, Ecuador",
        "provincia": "Pichincha",
        "lat": -0.2271624,
        "lng": -78.4989667,
        "rating": 3.8,
        "website": null,
        "keyword_found": "papelería"
    },
    {
        "place_id": "ChIJAYVGek-P1ZER-Xty0OutsJk",
        "nombre": "Bazar & Papelería P.J.D.A.",
        "direccion": "170204, Quito 170204, Ecuador",
        "provincia": "Pichincha",
        "lat": -0.0740259,
        "lng": -78.4384836,
        "rating": 4.4,
        "website": null,
        "keyword_found": "papelería"
    },
    {
        "place_id": "ChIJaUYT9RiX1ZERUddavKHskXY",
        "nombre": "Víveres Juanito Tienda y Papelería",
        "direccion": "Tumbaco, Quito 170903, Ecuador",
        "provincia": "Pichincha",
        "lat": -0.2236646,
        "lng": -78.3967222,
        "rating": 4.6,
        "website": null,
        "keyword_found": "papelería"
    },
    {
        "place_id": "ChIJCcBLNG6F1ZERmCH21Cg5emc",
        "nombre": "BAZAR Y PAPELERÍA 3 PEQUEÑOS",
        "direccion": "Quito 170134, Ecuador",
        "provincia": "Pichincha",
        "lat": -0.118431,
        "lng": -78.5134376,
        "rating": 5,
        "website": "https://www.facebook.com/profile.php?id=100067031546531&mibextid=ZbWKwL",
        "keyword_found": "papelería"
    },
    {
        "place_id": "ChIJM4U2I0Ki1ZERq9EwZb-p8Aw",
        "nombre": "Papelería Kelly",
        "direccion": "La Cocha S/N, Quito 170703, Ecuador",
        "provincia": "Pichincha",
        "lat": -0.3133861,
        "lng": -78.5369963,
        "rating": 5,
        "website": null,
        "keyword_found": "papelería"
    },
    {
        "place_id": "ChIJYxCrR6qY1ZERZ2XHly5c2XU",
        "nombre": "Papelería Ángel",
        "direccion": "Martha Bucaram de Roldos S36-171, Quito 170707, Ecuador",
        "provincia": "Pichincha",
        "lat": -0.2919513,
        "lng": -78.5619013,
        "rating": 4.3,
        "website": null,
        "keyword_found": "papelería"
    },
    {
        "place_id": "ChIJNf7-YUGj1ZER5sBtHLMzMG4",
        "nombre": "Bazar y papelería \"Jacobo\"",
        "direccion": "MCHW+QF2, Av. Quitumbe Ñan, Quito 170126, Ecuador",
        "provincia": "Pichincha",
        "lat": -0.3206133,
        "lng": -78.5538557,
        "rating": 4,
        "website": null,
        "keyword_found": "papelería"
    },
    {
        "place_id": "ChIJFyjqwdm91ZERckckZ1nvrEA",
        "nombre": "Papelería Karina",
        "direccion": "Antonio Sinchico, Rumiñahui 171101, Ecuador",
        "provincia": "Pichincha",
        "lat": -0.3244029,
        "lng": -78.4638731,
        "rating": 5,
        "website": null,
        "keyword_found": "papelería"
    },
    {
        "place_id": "ChIJ_Ykft2Ga1ZERuR_hEmp7DM4",
        "nombre": "Gaby Papelería",
        "direccion": "Av Antonio De Ulloa, Rumipamba N33-83, Quito, Pichincha 170147, Ecuador",
        "provincia": "Pichincha",
        "lat": -0.1845705,
        "lng": -78.49454399999999,
        "rating": 4.5,
        "website": "https://www.aiyellow.com/papeleriagaby/",
        "keyword_found": "papelería"
    },
    {
        "place_id": "ChIJj-WVJSyZ1ZERutXwr4SgD2o",
        "nombre": "Bazar y Papelería SDS",
        "direccion": "Avenida Antonio Rodríguez, y, Quito 170111, Ecuador",
        "provincia": "Pichincha",
        "lat": -0.2558439,
        "lng": -78.52636799999999,
        "rating": 5,
        "website": null,
        "keyword_found": "papelería"
    },
    {
        "place_id": "ChIJiWppYwqQ1ZERCF6undS_RjQ",
        "nombre": "Bazar y Papelería Letty",
        "direccion": "De Los Viñedos N44-16, Quito 170138, Ecuador",
        "provincia": "Pichincha",
        "lat": -0.1623036,
        "lng": -78.4743788,
        "rating": 4.4,
        "website": null,
        "keyword_found": "papelería"
    },
    {
        "place_id": "ChIJXxvok46Z1ZERVzk-vi59EZ0",
        "nombre": "Papelería Copias",
        "direccion": "Valparaiso N3-33, Quito 170136, Ecuador",
        "provincia": "Pichincha",
        "lat": -0.226067,
        "lng": -78.50471929999999,
        "rating": 4.3,
        "website": null,
        "keyword_found": "papelería"
    },
    {
        "place_id": "ChIJ5b39K-GP1ZERGysNLGtaqu8",
        "nombre": "Su Bazar y Papelería",
        "direccion": "Neptaly Godoy N8-55 y, Quito 170204, Ecuador",
        "provincia": "Pichincha",
        "lat": -0.1018922,
        "lng": -78.45153069999999,
        "rating": 3.8,
        "website": null,
        "keyword_found": "papelería"
    },
    {
        "place_id": "ChIJR4ZcRr-91ZERiKzhlPhYbpo",
        "nombre": "Papelería Laurita",
        "direccion": "Juan Larrea 259, Sangolquí 171104, Ecuador",
        "provincia": "Pichincha",
        "lat": -0.3471451,
        "lng": -78.429265,
        "rating": 5,
        "website": null,
        "keyword_found": "papelería"
    },
    {
        "place_id": "ChIJ9dQid8OZ1ZERNijMza_ritE",
        "nombre": "Papelería lovis",
        "direccion": "Nariz del Diablo 1393, Quito 170141, Ecuador",
        "provincia": "Pichincha",
        "lat": -0.2563217,
        "lng": -78.5127743,
        "rating": 5,
        "website": null,
        "keyword_found": "papelería"
    },
    {
        "place_id": "ChIJweJQ7LaZ1ZERMz5lH5Da6eA",
        "nombre": "Bazar y Papelería",
        "direccion": "Calle: S8 E10-60, Loma de Puengasi, Quito 170409, Ecuador",
        "provincia": "Pichincha",
        "lat": -0.2508279,
        "lng": -78.5016871,
        "rating": 5,
        "website": null,
        "keyword_found": "papelería"
    },
    {
        "place_id": "ChIJvStOZ3mj1ZEROjFHDNjLLVo",
        "nombre": "Papelería y Recargas DIANKA",
        "direccion": "MF85+P79, Quito 170132, Ecuador",
        "provincia": "Pichincha",
        "lat": -0.3332096,
        "lng": -78.5417789,
        "rating": 5,
        "website": null,
        "keyword_found": "papelería"
    },
    {
        "place_id": "ChIJWemWXGiF1ZERwH2p7QFl4z0",
        "nombre": "Bazar Y Papelería",
        "direccion": "Calle Maria Tixilema, Autopista Gral. Rumiñahui 194, Quito 170144, Ecuador",
        "provincia": "Pichincha",
        "lat": -0.1263456,
        "lng": -78.4882764,
        "rating": 4.7,
        "website": null,
        "keyword_found": "papelería"
    },
    {
        "place_id": "ChIJjWajZKia1ZERudQiAm_Kvqg",
        "nombre": "Papelería Solingen",
        "direccion": "6 de Diciembre E7-198, Quito 170138, Ecuador",
        "provincia": "Pichincha",
        "lat": -0.1549636,
        "lng": -78.47771379999999,
        "rating": 4.3,
        "website": null,
        "keyword_found": "papelería"
    },
    {
        "place_id": "ChIJByNnXP2Y1ZER7Hvfz1TGGDA",
        "nombre": "PAPELERIA \"EL FAMILION\"",
        "direccion": "PFV9+4MC, Francisco Pérez, Quito 170148, Ecuador",
        "provincia": "Pichincha",
        "lat": -0.2571821,
        "lng": -78.5308659,
        "rating": 4.8,
        "website": null,
        "keyword_found": "papelería"
    },
    {
        "place_id": "ChIJscZdz0KF1ZERxJWcPZjKQV8",
        "nombre": "MEGATODO Bazar y Papelería",
        "direccion": "Av. Real Audiencia N58-110, Quito 170138, Ecuador",
        "provincia": "Pichincha",
        "lat": -0.1296621,
        "lng": -78.4872329,
        "rating": 4,
        "website": "https://www.facebook.com/profile.php?id=100086708560190",
        "keyword_found": "papelería"
    },
    {
        "place_id": "ChIJYdLGRlaF1ZERtWeXiu9gtRU",
        "nombre": "Niani Detalles y Papelería",
        "direccion": "Pío Jaramillo Alvarado N52-138 y, Quito 170502, Ecuador",
        "provincia": "Pichincha",
        "lat": -0.1404706,
        "lng": -78.4767749,
        "rating": 4.7,
        "website": null,
        "keyword_found": "papelería"
    },
    {
        "place_id": "ChIJVZ-mhR-j1ZERe2swJKBFtDo",
        "nombre": "PAPELERÍA - BPC",
        "direccion": "LEONIDAS DUBLES CALLE E2J # DE CASA E2-514 Y GRACIELA ESCUDERO, Quito 170132, Ecuador",
        "provincia": "Pichincha",
        "lat": -0.3289047,
        "lng": -78.54413149999999,
        "rating": 4.5,
        "website": "https://g.co/kgs/chYKbK6",
        "keyword_found": "papelería"
    },
    {
        "place_id": "ChIJo5e-CZGa1ZERulSW47SLvdI",
        "nombre": "El Lapicero papeleria",
        "direccion": "Av. América N38-76, Quito 170129, Ecuador",
        "provincia": "Pichincha",
        "lat": -0.1716463,
        "lng": -78.49033829999999,
        "rating": 3.4,
        "website": null,
        "keyword_found": "papelería"
    },
    {
        "place_id": "ChIJ76vfxh6Y1ZER3Npbfr74pMg",
        "nombre": "Papeleria Sofia",
        "direccion": "PGCC+H2V, Unnamed Road, Quito, Ecuador",
        "provincia": "Pichincha",
        "lat": -0.2785145,
        "lng": -78.4799621,
        "rating": 5,
        "website": null,
        "keyword_found": "papelería"
    },
    {
        "place_id": "ChIJbaT0PaGZ1ZERMkEFnCnIr3M",
        "nombre": "Mundo Creativo, Maquetas,Manualidades, Papelería y algo más",
        "direccion": "sector 4, Quito 170131, Ecuador",
        "provincia": "Pichincha",
        "lat": -0.2706949,
        "lng": -78.5383717,
        "rating": 4.7,
        "website": null,
        "keyword_found": "papelería"
    },
    {
        "place_id": "ChIJX0W6H-yX1ZERYTEleRcG3ds",
        "nombre": "PAPELERÍA, BAZAR Y DISFRACES BANANA JOE",
        "direccion": "DIEGO IBARRA N9535 Y, N9K PUENTE 8, Quito 170156, Ecuador",
        "provincia": "Pichincha",
        "lat": -0.2806074,
        "lng": -78.47046660000001,
        "rating": 4.9,
        "website": null,
        "keyword_found": "papelería"
    },
    {
        "place_id": "ChIJK1s-MDu91ZERlrSkQ9yk2ug",
        "nombre": "Papeleria Flor",
        "direccion": "San Pedro de Taboada, Quito, Pichincha, Ecuador mariana de jesus, Av. Mariana de Jesús 974, Quito, Ecuador",
        "provincia": "Pichincha",
        "lat": -0.3208054,
        "lng": -78.46025209999999,
        "rating": 3.6,
        "website": null,
        "keyword_found": "papelería"
    },
    {
        "place_id": "ChIJ6xJ1ybqF1ZERVXjWihmxjik",
        "nombre": "Bazar y Papelería Johana",
        "direccion": "Calle N85, Oe12 74 y, Quito 170305, Ecuador",
        "provincia": "Pichincha",
        "lat": -0.0838105,
        "lng": -78.509267,
        "rating": 5,
        "website": null,
        "keyword_found": "papelería"
    },
    {
        "place_id": "ChIJUZTV2V6R1ZER0-O8v6QyjoE",
        "nombre": "Copy Bazar - Papelería",
        "direccion": "Antonio Jose de Sucre, Quito 170170, Ecuador",
        "provincia": "Pichincha",
        "lat": -0.1567079,
        "lng": -78.43988399999999,
        "rating": null,
        "website": null,
        "keyword_found": "papelería"
    },
    {
        "place_id": "ChIJrebZC58VKo4R_31Q9g9vYhg",
        "nombre": "PAPELERÍA MONSERRATH",
        "direccion": "C. Antonio José de Sucre 9-07, Otavalo 100450, Ecuador",
        "provincia": "Pichincha",
        "lat": 0.2266376,
        "lng": -78.2640098,
        "rating": 4.3,
        "website": "https://www.facebook.com/bazarypapeleriamonserrath/",
        "keyword_found": "papelería"
    },
    {
        "place_id": "ChIJ1U8Bns-P1ZERBG0ItkdFFr0",
        "nombre": "PAPELERÍA Y BAZAR \"EL ESTUDIANTE\"",
        "direccion": "Calle, José Miguel Guarderas S/N, Quito 170203, Ecuador",
        "provincia": "Pichincha",
        "lat": -0.1035819,
        "lng": -78.42390879999999,
        "rating": 5,
        "website": "https://papeleriaybazarelestudiante.com/",
        "keyword_found": "papelería"
    },
    {
        "place_id": "ChIJUchDmKSj1ZERbs7hWcGIxcM",
        "nombre": "Bazar y Papelería Familiar",
        "direccion": "Quito, Ecuador",
        "provincia": "Pichincha",
        "lat": -0.307788,
        "lng": -78.48806379999999,
        "rating": 5,
        "website": null,
        "keyword_found": "papelería"
    },
    {
        "place_id": "ChIJ-_6Yh4Wb1ZERaLmCoq6OvHs",
        "nombre": "Papelería y Bazar \"Jireh\"",
        "direccion": "Pasaje 2 148 y, Quito 170203, Ecuador",
        "provincia": "Pichincha",
        "lat": -0.2050659,
        "lng": -78.49826399999999,
        "rating": 5,
        "website": null,
        "keyword_found": "papelería"
    },
    {
        "place_id": "ChIJAfOnfEeP1ZERd8AS7AjOAgM",
        "nombre": "Bazar y Papelería Mabel",
        "direccion": "Gabriel García Moreno, Quito 170208, Ecuador",
        "provincia": "Pichincha",
        "lat": -0.1135204,
        "lng": -78.4389873,
        "rating": 5,
        "website": null,
        "keyword_found": "papelería"
    },
    {
        "place_id": "ChIJq9UUy4iY1ZERVxCWPD_dz9M",
        "nombre": "Bazar Papeleria",
        "direccion": "La Merced S22-211, Quito 170605, Ecuador",
        "provincia": "Pichincha",
        "lat": -0.2829618,
        "lng": -78.5262807,
        "rating": 5,
        "website": null,
        "keyword_found": "papelería"
    },
    {
        "place_id": "ChIJ9V4vnuuY1ZEREabHr-CHdvM",
        "nombre": "Papelería Y Bazar LF",
        "direccion": "Juan Nuñez Oe3-45, Quito 170131, Ecuador",
        "provincia": "Pichincha",
        "lat": -0.2728752,
        "lng": -78.5389014,
        "rating": null,
        "website": null,
        "keyword_found": "papelería"
    },
    {
        "place_id": "ChIJ_2OR0kmY1ZERW5rX6X4NtXQ",
        "nombre": "Papelería y Bazar Santa Teresita",
        "direccion": "PGP2+HHM, C. D, Quito, Ecuador",
        "provincia": "Pichincha",
        "lat": -0.2635416,
        "lng": -78.498589,
        "rating": 4.8,
        "website": null,
        "keyword_found": "papelería"
    },
    {
        "place_id": "ChIJgfYYT3AJKo4RchTafSIa5As",
        "nombre": "Papelería Aguirre",
        "direccion": "10 de Agosto Oe-052 entre Ascázubi y, Rocafuerte, Cayambe 171002, Ecuador",
        "provincia": "Pichincha",
        "lat": 0.0396249,
        "lng": -78.1440922,
        "rating": 4.7,
        "website": "http://www.aguirrepapelerias.com/",
        "keyword_found": "papelería"
    },
    {
        "place_id": "ChIJGRZ1DjWY1ZERUGyGZqVTmoM",
        "nombre": "Papelería DyD",
        "direccion": "170409, Quito 170409, Ecuador",
        "provincia": "Pichincha",
        "lat": -0.2585124,
        "lng": -78.4959485,
        "rating": 4.5,
        "website": null,
        "keyword_found": "papelería"
    },
    {
        "place_id": "ChIJ9SfHCfiF1ZERvbH_kK3TgYo",
        "nombre": "CRISPAO PAPELERÍA",
        "direccion": "Quito 170305, Ecuador",
        "provincia": "Pichincha",
        "lat": -0.1120365,
        "lng": -78.5066555,
        "rating": 5,
        "website": null,
        "keyword_found": "papelería"
    },
    {
        "place_id": "ChIJqZ4gyFOT1ZER_n4x8zl_PoA",
        "nombre": "Bazar y Papelería KASS",
        "direccion": "29 de abril, y, Quito 170179, Ecuador",
        "provincia": "Pichincha",
        "lat": -0.1842639,
        "lng": -78.34321589999999,
        "rating": 5,
        "website": null,
        "keyword_found": "papelería"
    },
    {
        "place_id": "ChIJX8n5gy6P1ZERqBxdaf2Lzbc",
        "nombre": "Papelería y algo más",
        "direccion": "WHG3+552, De Los Trigales 276, Quito 170205, Ecuador",
        "provincia": "Pichincha",
        "lat": -0.07762680000000001,
        "lng": -78.4460185,
        "rating": 5,
        "website": null,
        "keyword_found": "papelería"
    },
    {
        "place_id": "ChIJc8GeTniZ1ZERuoUePU4lMao",
        "nombre": "BAZAR PAPELERIA LLUVIA DE BENDICION",
        "direccion": "C. Punaes S7-91, Quito 170131, Ecuador",
        "provincia": "Pichincha",
        "lat": -0.2278095,
        "lng": -78.5233377,
        "rating": 4.3,
        "website": null,
        "keyword_found": "papelería"
    },
    {
        "place_id": "ChIJJxLJifSJ1ZERUyXI6R5sGng",
        "nombre": "Variedades & Papelería Mati",
        "direccion": "WHJJ+6P3, Roma, Quito 170207, Ecuador",
        "provincia": "Pichincha",
        "lat": -0.06949559999999999,
        "lng": -78.4182149,
        "rating": 4,
        "website": null,
        "keyword_found": "papelería"
    },
    {
        "place_id": "ChIJ4eaY5hyZ1ZERLQXPlDZizzs",
        "nombre": "Bazar Y Papeleria \"Variedades\"",
        "direccion": "Barrionuevo, El Canelo S11-85, Quito 170601, Ecuador",
        "provincia": "Pichincha",
        "lat": -0.2542618,
        "lng": -78.5338075,
        "rating": 5,
        "website": null,
        "keyword_found": "papelería"
    },
    {
        "place_id": "ChIJbcItMVaF1ZERmL4SMa4nZfs",
        "nombre": "Papelería Aroni",
        "direccion": "Capitán Ramón Borja E7-69, Quito 170502, Ecuador",
        "provincia": "Pichincha",
        "lat": -0.1399996,
        "lng": -78.47624259999999,
        "rating": 4.1,
        "website": null,
        "keyword_found": "papelería"
    },
    {
        "place_id": "ChIJOWURv4WP1ZERjK-TEdR4YcM",
        "nombre": "Bazar y Papelería \"EURIDICE\"",
        "direccion": "Avenida Francisco de la Torre &, Quito, Ecuador",
        "provincia": "Pichincha",
        "lat": -0.1176499,
        "lng": -78.4679934,
        "rating": 4.6,
        "website": null,
        "keyword_found": "papelería"
    },
    {
        "place_id": "ChIJBWfKQo-P1ZERVsLIV0kb_bk",
        "nombre": "BAZAR Y PAPELERIA PAPEL NET",
        "direccion": "E 96 y, Mariano Urrea &, Quito 170133, Ecuador",
        "provincia": "Pichincha",
        "lat": -0.1194298,
        "lng": -78.46824029999999,
        "rating": 4.4,
        "website": null,
        "keyword_found": "papelería"
    },
    {
        "place_id": "ChIJq046uvWZ1ZERrOJz-Cx_Lt8",
        "nombre": "MAPRADIC",
        "direccion": "Calle Malvas, Alberto Spencer, Casa #11, Pasaje S27c, y, Quito 170131, Ecuador",
        "provincia": "Pichincha",
        "lat": -0.2799035,
        "lng": -78.54457339999999,
        "rating": 4.5,
        "website": "https://mapradic.com.ec/",
        "keyword_found": "material educativo"
    },
    {
        "place_id": "ChIJkcyBAoSb1ZERwGslo3iiC3g",
        "nombre": "Garabatos Ec Versalles",
        "direccion": "Versalles 318, Quito 170520, Ecuador",
        "provincia": "Pichincha",
        "lat": -0.1951519,
        "lng": -78.49704919999999,
        "rating": 4.8,
        "website": "http://www.garabatosec.com/",
        "keyword_found": "material educativo"
    },
    {
        "place_id": "ChIJvbKzB6Ka1ZERBEHN6pCqMjI",
        "nombre": "Lidex Educa",
        "direccion": "Isla Genovesa N43-87 y, Quito 170501, Ecuador",
        "provincia": "Pichincha",
        "lat": -0.163607,
        "lng": -78.4812982,
        "rating": 4.3,
        "website": "http://www.lidexeduca.com/",
        "keyword_found": "material educativo"
    },
    {
        "place_id": "ChIJGRuTUw6b1ZERHaTE3hzfBDQ",
        "nombre": "MADIC Material Didáctico",
        "direccion": "Vicente Pajuelo N49-50 y, Quito 170511, Ecuador",
        "provincia": "Pichincha",
        "lat": -0.1493144,
        "lng": -78.4968884,
        "rating": 5,
        "website": null,
        "keyword_found": "material educativo"
    },
    {
        "place_id": "ChIJ2VALbvGZ1ZERyEXyQPf619Y",
        "nombre": "Gioco",
        "direccion": "Calle Zota urco Oe 11-95 y, Río Colambo, Quito 170129, Ecuador",
        "provincia": "Pichincha",
        "lat": -0.2353185,
        "lng": -78.54093879999999,
        "rating": 5,
        "website": null,
        "keyword_found": "material educativo"
    },
    {
        "place_id": "ChIJY5pxNcqb1ZEREUFOfkmO3q4",
        "nombre": "ESCUELA DE FORMACION PROFESIONAL EC",
        "direccion": "Edificio alamo entre Av. Rio Amazonas, y, Quito 170143, Ecuador",
        "provincia": "Pichincha",
        "lat": -0.2069355,
        "lng": -78.4968009,
        "rating": 4.9,
        "website": "https://formacionprofessional.com/",
        "keyword_found": "material educativo"
    },
    {
        "place_id": "ChIJf2pDYq2Z1ZERVbBIiQggPws",
        "nombre": "Charlotte English School | Turubamba",
        "direccion": "Av. Tnte. Hugo Ortiz 177, Quito 170606, Ecuador",
        "provincia": "Pichincha",
        "lat": -0.2758966,
        "lng": -78.5412241,
        "rating": 5,
        "website": "https://www.charlotteenglishschool.com/",
        "keyword_found": "material educativo"
    },
    {
        "place_id": "ChIJebHkCpmZ1ZERcny3jID_BNQ",
        "nombre": "a jugar",
        "direccion": "Isla Fernandina, u, Quito 170109, Ecuador",
        "provincia": "Pichincha",
        "lat": -0.2527039,
        "lng": -78.48273429999999,
        "rating": 5,
        "website": "http://www.a-jugar.com/",
        "keyword_found": "material educativo"
    },
    {
        "place_id": "ChIJFURuaCSa1ZERD2AGpROZXd0",
        "nombre": "Láminas Educativas Solarte",
        "direccion": "cerca al colegio Don Bosco del Centro, Vicente León N5-23 y, Quito 170136, Ecuador",
        "provincia": "Pichincha",
        "lat": -0.2226948,
        "lng": -78.50599919999999,
        "rating": 4.4,
        "website": "http://laminassolarte.com/",
        "keyword_found": "material educativo"
    },
    {
        "place_id": "ChIJbY0CXdi91ZERg7u902TdIjU",
        "nombre": "Recursos Educativos y Juegos Didácticos",
        "direccion": "Isla Española 160 y, Quito 171102, Ecuador",
        "provincia": "Pichincha",
        "lat": -0.2991541,
        "lng": -78.46062909999999,
        "rating": null,
        "website": null,
        "keyword_found": "material educativo"
    },
    {
        "place_id": "ChIJJ9J3tN6j1ZERJpFCTjUBWnc",
        "nombre": "Preuniversitario Henry Ford",
        "direccion": "Cutuglagua, Quito 171107, Ecuador",
        "provincia": "Pichincha",
        "lat": -0.3627957,
        "lng": -78.55675269999999,
        "rating": 4.9,
        "website": "https://prehenryford.com/",
        "keyword_found": "material educativo"
    },
    {
        "place_id": "ChIJHxTFbNeF1ZERqzksnKcWqWQ",
        "nombre": "Eight Academy",
        "direccion": "VGCF+C47, Manuel Zambrano, Quito 170138, Ecuador",
        "provincia": "Pichincha",
        "lat": -0.1289605,
        "lng": -78.4769084,
        "rating": 4.8,
        "website": "http://www.eightacademy.ec/",
        "keyword_found": "material educativo"
    },
    {
        "place_id": "ChIJSwLE12Kb1ZERd-LjTWEO3DA",
        "nombre": "EducaTics - Centro de capacitación y certificación profesional",
        "direccion": "Av. de la República, Quito 170508, Ecuador",
        "provincia": "Pichincha",
        "lat": -0.1793032,
        "lng": -78.4908232,
        "rating": 4.8,
        "website": "https://educatics.com.ec/",
        "keyword_found": "material educativo"
    },
    {
        "place_id": "ChIJSy4Cpli91ZERK9uwFWzvBRY",
        "nombre": "Bilab Ecuador",
        "direccion": "RIO ZAMORA, Y, Quito 170804, Ecuador",
        "provincia": "Pichincha",
        "lat": -0.3025161,
        "lng": -78.4486512,
        "rating": 4.8,
        "website": "https://wa.me/593982688892",
        "keyword_found": "material educativo"
    },
    {
        "place_id": "ChIJfYAzCZiZ1ZER9LffUEBfnoA",
        "nombre": "Arelion Comparte Paz",
        "direccion": "Santa Monica Alta, Mayta Capac 2-241 y, Quito 170805, Ecuador",
        "provincia": "Pichincha",
        "lat": -0.2870433,
        "lng": -78.491534,
        "rating": null,
        "website": null,
        "keyword_found": "material educativo"
    },
    {
        "place_id": "ChIJPyzXzb2F1ZER5ii3mbyDVig",
        "nombre": "Papeleria Nesna",
        "direccion": "Av. Real Audiencia OE3-04, Quito 170303, Ecuador",
        "provincia": "Pichincha",
        "lat": -0.1176617,
        "lng": -78.48379609999999,
        "rating": 5,
        "website": null,
        "keyword_found": "material educativo"
    },
    {
        "place_id": "ChIJrXV0p5-91ZERlqBUos5XImY",
        "nombre": "Clip Papelería - Clip Total® - San Jorge",
        "direccion": "Av. General Enriquez 1124, Rumiñahui 171103, Ecuador",
        "provincia": "Pichincha",
        "lat": -0.3198976,
        "lng": -78.45021559999999,
        "rating": 5,
        "website": "https://www.clippapeleria.com/",
        "keyword_found": "material educativo"
    },
    {
        "place_id": "ChIJO9gQT--b1ZERm0oVBx4InDs",
        "nombre": "NORMA Ecuador",
        "direccion": "Isaac Albéniz E3-154, Quito 170502, Ecuador",
        "provincia": "Pichincha",
        "lat": -0.1529125,
        "lng": -78.48103660000001,
        "rating": 4.7,
        "website": "https://www.norma.com.ec/",
        "keyword_found": "material educativo"
    },
    {
        "place_id": "ChIJpYgsjBW91ZERip5LWBssZEk",
        "nombre": "Metadigital",
        "direccion": "Los Guayabos, Sangolquí 171102, Ecuador",
        "provincia": "Pichincha",
        "lat": -0.3347651,
        "lng": -78.45737489999999,
        "rating": null,
        "website": null,
        "keyword_found": "material educativo"
    },
    {
        "place_id": "ChIJU_HLFECZ1ZER-IERUQ4gq5k",
        "nombre": "SuperPaco Quicentro Sur",
        "direccion": "Av.Morán Valverde y Av.Quitumbe Ñan C.C Quicentro Sur, Planta Baja, Quito 170702, Ecuador",
        "provincia": "Pichincha",
        "lat": -0.285808,
        "lng": -78.543255,
        "rating": 3.8,
        "website": "http://www.superpaco.com/",
        "keyword_found": "material educativo"
    },
    {
        "place_id": "ChIJl_PHZ7Wb1ZER1wJawFpWeOY",
        "nombre": "CENFORPRO CAPACITACIONES",
        "direccion": "Canada 13-05 y, Quito 170103, Ecuador",
        "provincia": "Pichincha",
        "lat": -0.2112038,
        "lng": -78.5083044,
        "rating": 4.4,
        "website": "http://www.cenforpro.com/",
        "keyword_found": "material educativo"
    },
    {
        "place_id": "ChIJP-K-S1ab1ZERtYtN3D17e0U",
        "nombre": "Preuniversitario Tolkien & Asesoría Academica",
        "direccion": "Alonso de Mercadillo y 10 de agosto Esquina, Edf. Pazmiño (segundo piso, Quito 170143, Ecuador",
        "provincia": "Pichincha",
        "lat": -0.1997964,
        "lng": -78.49650419999999,
        "rating": 5,
        "website": null,
        "keyword_found": "material educativo"
    },
    {
        "place_id": "ChIJwRJdkBGa1ZERlFCM2Q94bvs",
        "nombre": "SOLARI Centro de Capacitación",
        "direccion": "Av. La Coruña N26-198 y, Quito 170517, Ecuador",
        "provincia": "Pichincha",
        "lat": -0.2012342,
        "lng": -78.4827705,
        "rating": 4.9,
        "website": "http://www.solari.ec/",
        "keyword_found": "material educativo"
    },
    {
        "place_id": "ChIJ4yzw-iia1ZERZzqR4K-kLHA",
        "nombre": "Clip Papelería - Clip Total® - Centro Histórico",
        "direccion": "BENALCAZAR N7-79, Quito 170401, Ecuador",
        "provincia": "Pichincha",
        "lat": -0.2171941,
        "lng": -78.5113056,
        "rating": 4.8,
        "website": "https://www.clippapeleria.com/",
        "keyword_found": "material educativo"
    },
    {
        "place_id": "ChIJ9bXwaaab1ZER9pr5ItbkA14",
        "nombre": "Clip Papelería - Clip Total® - El Inca",
        "direccion": "Av. El Inca E4-407, Quito 170138, Ecuador",
        "provincia": "Pichincha",
        "lat": -0.1568184,
        "lng": -78.48056749999999,
        "rating": 5,
        "website": "https://www.clippapeleria.com/",
        "keyword_found": "material educativo"
    },
    {
        "place_id": "ChIJYUaJoWWa1ZERSHSpAVI6kXY",
        "nombre": "ONEROM",
        "direccion": "Polonia N31-92 y Vancouver, Quito 170515, Ecuador",
        "provincia": "Pichincha",
        "lat": -0.1910473,
        "lng": -78.4896808,
        "rating": 3.9,
        "website": "http://www.onerom-ec.com/",
        "keyword_found": "material educativo"
    },
    {
        "place_id": "ChIJ6etSWqSa1ZERkrSvxNka2Xk",
        "nombre": "ILVEM & Charlotte INCA",
        "direccion": "Av. El Inca 45, Quito 170138, Ecuador",
        "provincia": "Pichincha",
        "lat": -0.1587616,
        "lng": -78.4831371,
        "rating": 4.7,
        "website": "https://charlotteenglishschool.com/",
        "keyword_found": "material educativo"
    },
    {
        "place_id": "ChIJFRJyLMWi1ZERvXWRLg8bP_M",
        "nombre": "COMPU BETEL",
        "direccion": "Barrio Rumiloma Paltas y, Mindo, Sangolquí 170502, Ecuador",
        "provincia": "Pichincha",
        "lat": -0.3289998,
        "lng": -78.4742539,
        "rating": 3.8,
        "website": "https://cristoesvida12.wixsite.com/compubetel",
        "keyword_found": "material educativo"
    },
    {
        "place_id": "ChIJgUXxVC-b1ZERuGYMhfx-HdE",
        "nombre": "Clip Papelería - Clip Total® - Santa Clara",
        "direccion": "Marchena Oe1-61, Quito 170129, Ecuador",
        "provincia": "Pichincha",
        "lat": -0.2001881,
        "lng": -78.4976618,
        "rating": 4.9,
        "website": "https://www.clippapeleria.com/",
        "keyword_found": "material educativo"
    },
    {
        "place_id": "ChIJ2TifvmaZ1ZERCt_j68gOe3s",
        "nombre": "Clip Papelería - Clip Total® - Hermano Miguel",
        "direccion": "Puruhá Oe6-38, Quito 170148, Ecuador",
        "provincia": "Pichincha",
        "lat": -0.2405209,
        "lng": -78.5307837,
        "rating": 4.9,
        "website": "https://www.clippapeleria.com/",
        "keyword_found": "material educativo"
    },
    {
        "place_id": "ChIJSWWw2b6a1ZERhpwI0P_cwhA",
        "nombre": "UK English Institute | El Inca",
        "direccion": "Av. El Inca ESQUINA, Quito 170675, Ecuador",
        "provincia": "Pichincha",
        "lat": -0.1587161,
        "lng": -78.482968,
        "rating": 4.5,
        "website": "https://ukenglishinstitute.com/",
        "keyword_found": "material educativo"
    },
    {
        "place_id": "ChIJaUewKV2b1ZERUFCs5c4zqhw",
        "nombre": "Preuniversitario Estudia Inteligente",
        "direccion": "Antonio Navarro, Quito 170102, Ecuador",
        "provincia": "Pichincha",
        "lat": -0.1902769,
        "lng": -78.4824036,
        "rating": 5,
        "website": "https://www.estudiainteligente.com/",
        "keyword_found": "material educativo"
    },
    {
        "place_id": "ChIJo-a9fb6Z1ZERGrG4W6wy8kU",
        "nombre": "Laboratorios StartLABS - San Bartolo",
        "direccion": "Teodoro Gomez de La Torre, Quito 170148, Ecuador",
        "provincia": "Pichincha",
        "lat": -0.2616358,
        "lng": -78.5256053,
        "rating": 4.9,
        "website": "https://coworking.ups.edu.ec/startlabs",
        "keyword_found": "material educativo"
    },
    {
        "place_id": "ChIJjaKtpza91ZERKjZ-zIUDhTo",
        "nombre": "ADEI",
        "direccion": "Av. Abdon Calderón y, Ponce, Quito, Ecuador",
        "provincia": "Pichincha",
        "lat": -0.2924437,
        "lng": -78.4853153,
        "rating": 5,
        "website": null,
        "keyword_found": "material educativo"
    },
    {
        "place_id": "ChIJx5gvQRaF1ZERgdfQBgGSHtc",
        "nombre": "Academia Have Digital",
        "direccion": "Av. Real Audiencia, Quito 170102, Ecuador",
        "provincia": "Pichincha",
        "lat": -0.1401098,
        "lng": -78.4858124,
        "rating": null,
        "website": "https://www.academiahave.com/",
        "keyword_found": "material educativo"
    },
    {
        "place_id": "ChIJfw85F8GZ1ZERN5yMfdxlZys",
        "nombre": "ACADEMIA HOGWARTZ QUITO",
        "direccion": "S27B, Quito 170603, Ecuador",
        "provincia": "Pichincha",
        "lat": -0.2858019,
        "lng": -78.5309113,
        "rating": 5,
        "website": "http://www.academiahogwartz.com/",
        "keyword_found": "material educativo"
    },
    {
        "place_id": "ChIJd1D89xWa1ZERBDs68rUiGlE",
        "nombre": "Preuniversitario TeamGGM",
        "direccion": "Av. 6 De Diciembre, e esquina, Quito 170526, Ecuador",
        "provincia": "Pichincha",
        "lat": -0.2054334,
        "lng": -78.4921711,
        "rating": 4.9,
        "website": "https://teamggm.com/",
        "keyword_found": "material educativo"
    },
    {
        "place_id": "ChIJCYcSIh291ZERui4Y_y8HSjw",
        "nombre": "Bakan Ottos - Bodega / Combos Pro",
        "direccion": "San Francisco de Oyacoto, N°, Calle, C. 4 de Octubre E2-232, Quito, Ecuador",
        "provincia": "Pichincha",
        "lat": -0.2969818,
        "lng": -78.41562859999999,
        "rating": null,
        "website": "https://www.bakanottos.com/",
        "keyword_found": "material educativo"
    },
    {
        "place_id": "ChIJ85fmC9E_Ko4RjFwa5dXEPmY",
        "nombre": "Only Way Global",
        "direccion": "Plaza de Ponchos, C. Modesto Jaramillo 669 y, Otavalo 100401, Ecuador",
        "provincia": "Pichincha",
        "lat": 0.2297565999999999,
        "lng": -78.2629091,
        "rating": 5,
        "website": null,
        "keyword_found": "material educativo"
    },
    {
        "place_id": "ChIJV40freqY1ZERFdJOenMm53s",
        "nombre": "Educational Unit Nuestra Señora del Cisne",
        "direccion": "Cusubamba Oe3-289, Quito 170131, Ecuador",
        "provincia": "Pichincha",
        "lat": -0.2750992,
        "lng": -78.542867,
        "rating": 4.5,
        "website": "https://ienscisne.com/",
        "keyword_found": "material educativo"
    },
    {
        "place_id": "ChIJWWW1tlub1ZERDfhGeu3eGBk",
        "nombre": "Giotto Ecuador",
        "direccion": "Juan Agama N29-11, Quito 170519, Ecuador",
        "provincia": "Pichincha",
        "lat": -0.1925434,
        "lng": -78.4927862,
        "rating": 5,
        "website": null,
        "keyword_found": "material educativo"
    },
    {
        "place_id": "ChIJD82yRN281ZER5PdS4M02uSo",
        "nombre": "Vernaza Grafic Almacén El Choclo, Sangolquí",
        "direccion": "Redondel del Choclo, Av. Abdón Calderón, Sangolquí 171103, Ecuador",
        "provincia": "Pichincha",
        "lat": -0.3345272,
        "lng": -78.4405858,
        "rating": 4.8,
        "website": "https://www.vernazagrafic.com/",
        "keyword_found": "material educativo"
    },
    {
        "place_id": "ChIJ545_7-6b1ZERUrI9PmA6yXo",
        "nombre": "ECLibertad",
        "direccion": "Av. 10 de Agosto 58 y, Quito 170519, Ecuador",
        "provincia": "Pichincha",
        "lat": -0.1856492,
        "lng": -78.4911616,
        "rating": 4.7,
        "website": "https://eclibertad.com/",
        "keyword_found": "material educativo"
    },